[{"Facility Type": "DAY CARE CENTER", "Facility Number": 384001195.0, "Facility Name": "1ST PLACE 2 START", "Facility Address": "1252 SUNNYDALE AVE", "Facility City": "SAN FRANCISCO", "Facility Zip": 94134.0, "Facility Capacity": 27.0, "Facility Status": "LICENSED", "ELFA_Contracted": "Yes", "SFUSD_Site": "No", "SFUSD_School_Name": "", "Latitude": 37.720083294500114, "Longitude": -122.41257830998936}, {"Facility Type": "DAY CARE CENTER", "Facility Number": 380506527.0, "Facility Name": "ABC PRE-SCHOOL", "Facility Address": "426 33RD AVENUE, 1ST FLOOR", "Facility City": "SAN FRANCISCO", "Facility Zip": 94121.0, "Facility Capacity": 35.0, "Facility Status": "LICENSED", "ELFA_Contracted": "Yes", "SFUSD_Site": "No", "SFUSD_School_Name": "", "Latitude": 37.778351561323944, "Longitude": -122.48954530891538}, {"Facility Type": "DAY CARE CENTER", "Facility Number": 384002539.0, "Facility Name": "ALEMANY CENTER-HEAD START (PS)", "Facility Address": "956 ELLSWORTH STREET", "Facility City": "SAN FRANCISCO", "Facility Zip": 94110.0, "Facility Capacity": 18.0, "Facility Status": "LICENSED", "ELFA_Contracted": "Yes", "SFUSD_Site": "No", "SFUSD_School_Name": "", "Latitude": 37.7485355481256, "Longitude": -122.41435131606494}, {"Facility Type": "DAY CARE CENTER", "Facility Number": 384002291.0, "Facility Name": "ALPHA KIDS ACADEMY, LLC", "Facility Address": "175 JUNIPERO SERRA BLVD", "Facility City": "SAN FRANCISCO", "Facility Zip": 94127.0, "Facility Capacity": 53.0, "Facility Status": "LICENSED", "ELFA_Contracted": "Yes", "SFUSD_Site": "No", "SFUSD_School_Name": "", "Latitude": 37.73336360541645, "Longitude": -122.45603512141992}, {"Facility Type": "DAY CARE CENTER", "Facility Number": 384002496.0, "Facility Name": "ALPHA KIDS ACADEMY, LLC (PS)", "Facility Address": "300 STONECREST DRIVE", "Facility City": "SAN FRANCISCO", "Facility Zip": 94132.0, "Facility Capacity": 30.0, "Facility Status": "LICENSED", "ELFA_Contracted": "Yes", "SFUSD_Site": "No", "SFUSD_School_Name": "", "Latitude": 37.72159075792177, "Longitude": -122.47457454394113}, {"Facility Type": "DAY CARE CENTER", "Facility Number": 384000037.0, "Facility Name": "ALTA PLAZA PRESCHOOL", "Facility Address": "2140 PIERCE STREET", "Facility City": "SAN FRANCISCO", "Facility Zip": 94115.0, "Facility Capacity": 30.0, "Facility Status": "LICENSED", "ELFA_Contracted": "No", "SFUSD_Site": "No", "SFUSD_School_Name": "", "Latitude": 37.78150126711439, "Longitude": -122.43203267595091}, {"Facility Type": "DAY CARE CENTER", "Facility Number": 384004665.0, "Facility Name": "AMIGOS DE PRESIDIO HEIGHTS", "Facility Address": "3437 CLAY STREET", "Facility City": "SAN FRANCISCO", "Facility Zip": 94118.0, "Facility Capacity": 15.0, "Facility Status": "LICENSED", "ELFA_Contracted": "No", "SFUSD_Site": "No", "SFUSD_School_Name": "", "Latitude": 37.7811188176087, "Longitude": -122.4625514910764}, {"Facility Type": "DAY CARE CENTER", "Facility Number": 384004188.0, "Facility Name": "APPLE TREE CHILDREN CENTER- PRESCHOOL", "Facility Address": "1331 HARRISON STREET", "Facility City": "SAN FRANCISCO", "Facility Zip": 94103.0, "Facility Capacity": 21.0, "Facility Status": "CLOSED", "ELFA_Contracted": "No", "SFUSD_Site": "No", "SFUSD_School_Name": "", "Latitude": 37.76788824784042, "Longitude": -122.41378106968789}, {"Facility Type": "DAY CARE CENTER", "Facility Number": 384004774.0, "Facility Name": "APPLE TREE CHILDREN CENTER-PRESCHOOL", "Facility Address": "888 FOLSOM STREET", "Facility City": "SAN FRANCISCO", "Facility Zip": 94107.0, "Facility Capacity": 53.0, "Facility Status": "LICENSED", "ELFA_Contracted": "No", "SFUSD_Site": "No", "SFUSD_School_Name": "", "Latitude": 37.76097916034744, "Longitude": -122.39416697862846}, {"Facility Type": "DAY CARE CENTER", "Facility Number": 380504714.0, "Facility Name": "ARK CHRISTIAN PRESCHOOL, THE", "Facility Address": "3141 VICENTE STREET", "Facility City": "SAN FRANCISCO", "Facility Zip": 94116.0, "Facility Capacity": 70.0, "Facility Status": "LICENSED", "ELFA_Contracted": "No", "SFUSD_Site": "No", "SFUSD_School_Name": "", "Latitude": 37.742962030157734, "Longitude": -122.4867639497565}, {"Facility Type": "DAY CARE CENTER", "Facility Number": 384001731.0, "Facility Name": "ARK OF HOPE PRESCHOOL, INC.", "Facility Address": "2701 NORIEGA STREET", "Facility City": "SAN FRANCISCO", "Facility Zip": 94122.0, "Facility Capacity": 42.0, "Facility Status": "CLOSED", "ELFA_Contracted": "No", "SFUSD_Site": "No", "SFUSD_School_Name": "", "Latitude": 37.757415320647105, "Longitude": -122.48300781460702}, {"Facility Type": "DAY CARE CENTER", "Facility Number": 380504942.0, "Facility Name": "ASSOCIATED STUDENTS CHILDREN'S CENTER - PRESCHOOL", "Facility Address": "1650 HOLLOWAY AVENUE", "Facility City": "SAN FRANCISCO", "Facility Zip": 94132.0, "Facility Capacity": 60.0, "Facility Status": "LICENSED", "ELFA_Contracted": "Yes", "SFUSD_Site": "No", "SFUSD_School_Name": "", "Latitude": 37.72065943827304, "Longitude": -122.47343267529733}, {"Facility Type": "DAY CARE CENTER", "Facility Number": 384004012.0, "Facility Name": "AU P'TIT MONDE, INC.", "Facility Address": "1100 DIVISADERO STREET", "Facility City": "SAN FRANCISCO", "Facility Zip": 94115.0, "Facility Capacity": 50.0, "Facility Status": "LICENSED", "ELFA_Contracted": "No", "SFUSD_Site": "No", "SFUSD_School_Name": "", "Latitude": 37.78390951263743, "Longitude": -122.43803841764833}, {"Facility Type": "DAY CARE CENTER", "Facility Number": 384004134.0, "Facility Name": "AVENUES KINDERCARE, THE", "Facility Address": "334 28TH AVENUE", "Facility City": "SAN FRANCISCO", "Facility Zip": 94121.0, "Facility Capacity": 94.0, "Facility Status": "LICENSED", "ELFA_Contracted": "No", "SFUSD_Site": "No", "SFUSD_School_Name": "", "Latitude": 37.779650635475306, "Longitude": -122.49360041702921}, {"Facility Type": "DAY CARE CENTER", "Facility Number": 384002367.0, "Facility Name": "BABY LOVE FAMILY CHILD CARE", "Facility Address": "283 FARALLONES AVENUE", "Facility City": "SAN FRANCISCO", "Facility Zip": 94112.0, "Facility Capacity": 30.0, "Facility Status": "CLOSED", "ELFA_Contracted": "No", "SFUSD_Site": "No", "SFUSD_School_Name": "", "Latitude": 37.717640783438426, "Longitude": -122.44633623959479}, {"Facility Type": "DAY CARE CENTER", "Facility Number": 380505671.0, "Facility Name": "BALBOA PRESCHOOL", "Facility Address": "521 BALBOA STREET", "Facility City": "SAN FRANCISCO", "Facility Zip": 94118.0, "Facility Capacity": 30.0, "Facility Status": "CLOSED", "ELFA_Contracted": "No", "SFUSD_Site": "No", "SFUSD_School_Name": "", "Latitude": 37.781996812470766, "Longitude": -122.46698725267699}, {"Facility Type": "DAY CARE CENTER", "Facility Number": 384002471.0, "Facility Name": "BAMBINI MONTESSORI SCHOOL", "Facility Address": "2042 CLEMENT STREET", "Facility City": "SAN FRANCISCO", "Facility Zip": 94121.0, "Facility Capacity": 30.0, "Facility Status": "CLOSED", "ELFA_Contracted": "No", "SFUSD_Site": "No", "SFUSD_School_Name": "", "Latitude": 37.77914749394683, "Longitude": -122.48919672234848}, {"Facility Type": "DAY CARE CENTER", "Facility Number": 384004477.0, "Facility Name": "BANANA FANA PRESCHOOL", "Facility Address": "2701- 2707 FOLSOM STREET", "Facility City": "SAN FRANCISCO", "Facility Zip": 94110.0, "Facility Capacity": 50.0, "Facility Status": "LICENSED", "ELFA_Contracted": "Yes", "SFUSD_Site": "No", "SFUSD_School_Name": "", "Latitude": 37.74585151269356, "Longitude": -122.41289372247894}, {"Facility Type": "DAY CARE CENTER", "Facility Number": 380503028.0, "Facility Name": "BIG CITY MONTESSORI SCHOOL", "Facility Address": "240 INDUSTRIAL STREET", "Facility City": "SAN FRANCISCO", "Facility Zip": 94124.0, "Facility Capacity": 100.0, "Facility Status": "LICENSED", "ELFA_Contracted": "No", "SFUSD_Site": "No", "SFUSD_School_Name": "", "Latitude": 37.73239335055715, "Longitude": -122.39224741722802}, {"Facility Type": "DAY CARE CENTER", "Facility Number": 384003088.0, "Facility Name": "BRIGHT HORIZONS AT 1700 MONTGOMERY STREET (PS)", "Facility Address": "1700 MONTGOMERY STREET STE 100", "Facility City": "SAN FRANCISCO", "Facility Zip": 94111.0, "Facility Capacity": 90.0, "Facility Status": "INACTIVE", "ELFA_Contracted": "No", "SFUSD_Site": "No", "SFUSD_School_Name": "", "Latitude": 37.80137555417519, "Longitude": -122.40476613960631}, {"Facility Type": "DAY CARE CENTER", "Facility Number": 384001513.0, "Facility Name": "BRIGHT HORIZONS AT 221 MAIN STREET (PRESCHOOL)", "Facility Address": "221 MAIN STREET", "Facility City": "SAN FRANCISCO", "Facility Zip": 94105.0, "Facility Capacity": 58.0, "Facility Status": "CLOSED", "ELFA_Contracted": "No", "SFUSD_Site": "No", "SFUSD_School_Name": "", "Latitude": 37.789047464438426, "Longitude": -122.38889264890835}, {"Facility Type": "DAY CARE CENTER", "Facility Number": 384002477.0, "Facility Name": "BRIGHT HORIZONS AT KANSAS STREET (PS)", "Facility Address": "200 KANSAS STREET, STE. 100", "Facility City": "SAN FRANCISCO", "Facility Zip": 94103.0, "Facility Capacity": 158.0, "Facility Status": "CLOSED", "ELFA_Contracted": "No", "SFUSD_Site": "No", "SFUSD_School_Name": "", "Latitude": 37.77631371701516, "Longitude": -122.40404441704456}, {"Facility Type": "DAY CARE CENTER", "Facility Number": 384000103.0, "Facility Name": "BRIGHT HORIZONS SAN FRANCISCO CALIFORNIA ST-PRESCH", "Facility Address": "555 CALIFORNIA STREET", "Facility City": "SAN FRANCISCO", "Facility Zip": 94104.0, "Facility Capacity": 12.0, "Facility Status": "LICENSED", "ELFA_Contracted": "No", "SFUSD_Site": "No", "SFUSD_School_Name": "", "Latitude": 37.79381715711923, "Longitude": -122.40035686351135}, {"Facility Type": "DAY CARE CENTER", "Facility Number": 384001806.0, "Facility Name": "BRIGHT HORIZONS @ SECOND STREET - PRESCHOOL", "Facility Address": "303 SECOND STREET,2ND FL. #25O", "Facility City": "SAN FRANCISCO", "Facility Zip": 94107.0, "Facility Capacity": 79.0, "Facility Status": "CLOSED", "ELFA_Contracted": "No", "SFUSD_Site": "No", "SFUSD_School_Name": "", "Latitude": 37.756669566895766, "Longitude": -122.39720485259168}, {"Facility Type": "DAY CARE CENTER", "Facility Number": 380504038.0, "Facility Name": "BUEN DIA FAMILY SCHOOL", "Facility Address": "589 GUERRERO ST.", "Facility City": "SAN FRANCISCO", "Facility Zip": 94110.0, "Facility Capacity": 30.0, "Facility Status": "LICENSED", "ELFA_Contracted": "Yes", "SFUSD_Site": "No", "SFUSD_School_Name": "", "Latitude": 37.7526711330846, "Longitude": -122.41112758423989}, {"Facility Type": "DAY CARE CENTER", "Facility Number": 384004543.0, "Facility Name": "BUILDING KIDZ OF SF-PACIFIC HEIGHTS", "Facility Address": "2426 CALIFORNIA STREET", "Facility City": "SAN FRANCISCO", "Facility Zip": 94115.0, "Facility Capacity": 36.0, "Facility Status": "CLOSED", "ELFA_Contracted": "No", "SFUSD_Site": "No", "SFUSD_School_Name": "", "Latitude": 37.78411643516645, "Longitude": -122.43467377094699}, {"Facility Type": "DAY CARE CENTER", "Facility Number": 384004823.0, "Facility Name": "BUILDING KIDZ ON 20TH AVENUE", "Facility Address": "1214 20TH AVENUE", "Facility City": "SAN FRANCISCO", "Facility Zip": 94122.0, "Facility Capacity": 20.0, "Facility Status": "LICENSED", "ELFA_Contracted": "No", "SFUSD_Site": "No", "SFUSD_School_Name": "", "Latitude": 37.76318869713668, "Longitude": -122.487962254748}, {"Facility Type": "DAY CARE CENTER", "Facility Number": 384004791.0, "Facility Name": "BUILDING KIDZ ON 20TH AVENUE", "Facility Address": "1258 20TH AVENUE", "Facility City": "SAN FRANCISCO", "Facility Zip": 94122.0, "Facility Capacity": 26.0, "Facility Status": "LICENSED", "ELFA_Contracted": "No", "SFUSD_Site": "No", "SFUSD_School_Name": "", "Latitude": 37.758720329044564, "Longitude": -122.48638770855001}, {"Facility Type": "DAY CARE CENTER", "Facility Number": 384004605.0, "Facility Name": "BUILDING KIDZ SAN FRANCISCO AT SUNSET", "Facility Address": "2540 TARAVAL STREET", "Facility City": "SAN FRANCISCO", "Facility Zip": 94116.0, "Facility Capacity": 49.0, "Facility Status": "LICENSED", "ELFA_Contracted": "No", "SFUSD_Site": "No", "SFUSD_School_Name": "", "Latitude": 37.738754709255986, "Longitude": -122.48710187729115}, {"Facility Type": "DAY CARE CENTER", "Facility Number": 384004137.0, "Facility Name": "BUILDING KIDZ SCHOOL OF SAN FRANCISCO", "Facility Address": "143 CLEMENT STREET", "Facility City": "SAN FRANCISCO", "Facility Zip": 94118.0, "Facility Capacity": 25.0, "Facility Status": "LICENSED", "ELFA_Contracted": "No", "SFUSD_Site": "No", "SFUSD_School_Name": "", "Latitude": 37.77564254247734, "Longitude": -122.4679700495403}, {"Facility Type": "DAY CARE CENTER", "Facility Number": 384002299.0, "Facility Name": "C5 CHILDREN'S SCHOOL-SFPUC (PS)", "Facility Address": "525 GOLDEN GATE AVENUE", "Facility City": "SAN FRANCISCO", "Facility Zip": 94102.0, "Facility Capacity": 45.0, "Facility Status": "LICENSED", "ELFA_Contracted": "Yes", "SFUSD_Site": "No", "SFUSD_School_Name": "", "Latitude": 37.77913946061078, "Longitude": -122.42261299910115}, {"Facility Type": "DAY CARE CENTER", "Facility Number": 384000654.0, "Facility Name": "C5 CHILDREN'S SCHOOL PRESCHOOL CENTER", "Facility Address": "455 GOLDEN GATE AVENUE", "Facility City": "SAN FRANCISCO", "Facility Zip": 94102.0, "Facility Capacity": 85.0, "Facility Status": "INACTIVE", "ELFA_Contracted": "No", "SFUSD_Site": "No", "SFUSD_School_Name": "", "Latitude": 37.77648034552692, "Longitude": -122.41598934444265}, {"Facility Type": "DAY CARE CENTER", "Facility Number": 384004798.0, "Facility Name": "C5 SF PERMIT BUILDING CENTER", "Facility Address": "49 SOUTH VAN NESS AVENUE #310", "Facility City": "SAN FRANCISCO", "Facility Zip": 94103.0, "Facility Capacity": 54.0, "Facility Status": "LICENSED", "ELFA_Contracted": "Yes", "SFUSD_Site": "No", "SFUSD_School_Name": "", "Latitude": 37.771643730138216, "Longitude": -122.40581581423329}, {"Facility Type": "DAY CARE CENTER", "Facility Number": 380500099.0, "Facility Name": "CALVARY PRESBYTERIAN CHURCH NURSERY SCHOOL", "Facility Address": "2515 FILLMORE STREET", "Facility City": "SAN FRANCISCO", "Facility Zip": 94115.0, "Facility Capacity": 75.0, "Facility Status": "LICENSED", "ELFA_Contracted": "No", "SFUSD_Site": "No", "SFUSD_School_Name": "", "Latitude": 37.787424922258694, "Longitude": -122.4362417210311}, {"Facility Type": "DAY CARE CENTER", "Facility Number": 384004272.0, "Facility Name": "CASA DEI BAMBINI SCHOOL, INC.", "Facility Address": "2401 TARAVAL STREET", "Facility City": "SAN FRANCISCO", "Facility Zip": 94116.0, "Facility Capacity": 29.0, "Facility Status": "LICENSED", "ELFA_Contracted": "No", "SFUSD_Site": "No", "SFUSD_School_Name": "", "Latitude": 37.73941622350444, "Longitude": -122.48492317772072}, {"Facility Type": "DAY CARE CENTER", "Facility Number": 380504386.0, "Facility Name": "CCFC- 31ST AVENUE", "Facility Address": "750 31ST AVENUE", "Facility City": "SAN FRANCISCO", "Facility Zip": 94121.0, "Facility Capacity": 43.0, "Facility Status": "LICENSED", "ELFA_Contracted": "Yes", "SFUSD_Site": "No", "SFUSD_School_Name": "", "Latitude": 37.772630072097826, "Longitude": -122.49428323932187}, {"Facility Type": "DAY CARE CENTER", "Facility Number": 380505039.0, "Facility Name": "CCFC-30TH AVENUE", "Facility Address": "741 30TH AVENUE", "Facility City": "SAN FRANCISCO", "Facility Zip": 94121.0, "Facility Capacity": 29.0, "Facility Status": "LICENSED", "ELFA_Contracted": "Yes", "SFUSD_Site": "No", "SFUSD_School_Name": "", "Latitude": 37.774565939017236, "Longitude": -122.48974452793075}, {"Facility Type": "DAY CARE CENTER", "Facility Number": 384002448.0, "Facility Name": "CCFC-50 RAYMOND CENTER (PS)", "Facility Address": "50 RAYMOND AVENUE", "Facility City": "SAN FRANCISCO", "Facility Zip": 94134.0, "Facility Capacity": 40.0, "Facility Status": "LICENSED", "ELFA_Contracted": "Yes", "SFUSD_Site": "No", "SFUSD_School_Name": "", "Latitude": 37.72235605334582, "Longitude": -122.4164878350374}, {"Facility Type": "DAY CARE CENTER", "Facility Number": 380504742.0, "Facility Name": "CCFC-EDDY", "Facility Address": "1672 EDDY STREET", "Facility City": "SAN FRANCISCO", "Facility Zip": 94115.0, "Facility Capacity": 50.0, "Facility Status": "LICENSED", "ELFA_Contracted": "Yes", "SFUSD_Site": "No", "SFUSD_School_Name": "", "Latitude": 37.784823106447746, "Longitude": -122.43462036023963}, {"Facility Type": "DAY CARE CENTER", "Facility Number": 384004423.0, "Facility Name": "CCFC-GOLDEN GATE CENTER", "Facility Address": "1455 GOLDEN GATE AVENUE", "Facility City": "SAN FRANCISCO", "Facility Zip": 94115.0, "Facility Capacity": 32.0, "Facility Status": "LICENSED", "ELFA_Contracted": "Yes", "SFUSD_Site": "No", "SFUSD_School_Name": "", "Latitude": 37.78566303410417, "Longitude": -122.43976973023348}, {"Facility Type": "DAY CARE CENTER", "Facility Number": 380506340.0, "Facility Name": "CCFC-TURK", "Facility Address": "259 TURK STREET", "Facility City": "SAN FRANCISCO", "Facility Zip": 94102.0, "Facility Capacity": 53.0, "Facility Status": "LICENSED", "ELFA_Contracted": "Yes", "SFUSD_Site": "No", "SFUSD_School_Name": "", "Latitude": 37.776672726364055, "Longitude": -122.42273645426255}, {"Facility Type": "DAY CARE CENTER", "Facility Number": 384002239.0, "Facility Name": "CCFC-VV HERITAGE CENTER (P)", "Facility Address": "245 REY STREET", "Facility City": "SAN FRANCISCO", "Facility Zip": 94134.0, "Facility Capacity": 20.0, "Facility Status": "LICENSED", "ELFA_Contracted": "Yes", "SFUSD_Site": "No", "SFUSD_School_Name": "", "Latitude": 37.71943826185972, "Longitude": -122.41067020114397}, {"Facility Type": "DAY CARE CENTER", "Facility Number": 384002237.0, "Facility Name": "CCFC-VV JOHN KING CENTER (P)", "Facility Address": "500 RAYMOND AVENUE", "Facility City": "SAN FRANCISCO", "Facility Zip": 94134.0, "Facility Capacity": 24.0, "Facility Status": "LICENSED", "ELFA_Contracted": "Yes", "SFUSD_Site": "No", "SFUSD_School_Name": "", "Latitude": 37.724144076576735, "Longitude": -122.41205385914937}, {"Facility Type": "DAY CARE CENTER", "Facility Number": 384002242.0, "Facility Name": "CCFC-VV LELAND CENTER (P)", "Facility Address": "325 LELAND AVENUE", "Facility City": "SAN FRANCISCO", "Facility Zip": 94134.0, "Facility Capacity": 88.0, "Facility Status": "LICENSED", "ELFA_Contracted": "Yes", "SFUSD_Site": "No", "SFUSD_School_Name": "", "Latitude": 37.71956373286171, "Longitude": -122.41719517545711}, {"Facility Type": "DAY CARE CENTER", "Facility Number": 384002241.0, "Facility Name": "CCFC-VV TUCKER CENTER (P)", "Facility Address": "103 TUCKER AVENUE", "Facility City": "SAN FRANCISCO", "Facility Zip": 94134.0, "Facility Capacity": 40.0, "Facility Status": "LICENSED", "ELFA_Contracted": "Yes", "SFUSD_Site": "No", "SFUSD_School_Name": "", "Latitude": 37.72030846333421, "Longitude": -122.41831144376998}, {"Facility Type": "DAY CARE CENTER", "Facility Number": 384002732.0, "Facility Name": "CCFC - CLEO WALLACE CHILD DEVELOPMENT CENTER", "Facility Address": "71 TURNER TERRACE", "Facility City": "SAN FRANCISCO", "Facility Zip": 94107.0, "Facility Capacity": 35.0, "Facility Status": "CLOSED", "ELFA_Contracted": "Yes", "SFUSD_Site": "No", "SFUSD_School_Name": "", "Latitude": 37.75758973716883, "Longitude": -122.39747574087683}, {"Facility Type": "DAY CARE CENTER", "Facility Number": 384001625.0, "Facility Name": "CENTRO LAS OLAS", "Facility Address": "3737 26TH STREET", "Facility City": "SAN FRANCISCO", "Facility Zip": 94110.0, "Facility Capacity": 16.0, "Facility Status": "LICENSED", "ELFA_Contracted": "Yes", "SFUSD_Site": "No", "SFUSD_School_Name": "", "Latitude": 37.743957230093166, "Longitude": -122.41467057287248}, {"Facility Type": "DAY CARE CENTER", "Facility Number": 384004764.0, "Facility Name": "CENTRO PRIMEROS PASOS", "Facility Address": "1270 SANCHEZ STREET", "Facility City": "SAN FRANCISCO", "Facility Zip": 94114.0, "Facility Capacity": 40.0, "Facility Status": "LICENSED", "ELFA_Contracted": "No", "SFUSD_Site": "No", "SFUSD_School_Name": "", "Latitude": 37.762295606261986, "Longitude": -122.4350184870694}, {"Facility Type": "DAY CARE CENTER", "Facility Number": 384003076.0, "Facility Name": "CENTRO PRIMEROS PASOS", "Facility Address": "901 BAYSHORE BLVD", "Facility City": "SAN FRANCISCO", "Facility Zip": 94124.0, "Facility Capacity": 56.0, "Facility Status": "LICENSED", "ELFA_Contracted": "No", "SFUSD_Site": "No", "SFUSD_School_Name": "", "Latitude": 37.73303198114714, "Longitude": -122.39253733783357}, {"Facility Type": "DAY CARE CENTER", "Facility Number": 384000923.0, "Facility Name": "CHIBI-CHAN PRESCHOOL", "Facility Address": "2507 PINE STREET", "Facility City": "SAN FRANCISCO", "Facility Zip": 94115.0, "Facility Capacity": 56.0, "Facility Status": "LICENSED", "ELFA_Contracted": "Yes", "SFUSD_Site": "No", "SFUSD_School_Name": "", "Latitude": 37.79066788040951, "Longitude": -122.43492622867343}, {"Facility Type": "DAY CARE CENTER", "Facility Number": 384002962.0, "Facility Name": "CHIBI CHAN TOO", "Facility Address": "800 PRESIDIO AVE", "Facility City": "SAN FRANCISCO", "Facility Zip": 94115.0, "Facility Capacity": 36.0, "Facility Status": "LICENSED", "ELFA_Contracted": "Yes", "SFUSD_Site": "No", "SFUSD_School_Name": "", "Latitude": 37.783241013894575, "Longitude": -122.43977139795317}, {"Facility Type": "DAY CARE CENTER", "Facility Number": 384000521.0, "Facility Name": "CHILD'S TIME", "Facility Address": "3061 SAN BRUNO AVENUE", "Facility City": "SAN FRANCISCO", "Facility Zip": 94134.0, "Facility Capacity": 22.0, "Facility Status": "LICENSED", "ELFA_Contracted": "Yes", "SFUSD_Site": "No", "SFUSD_School_Name": "", "Latitude": 37.717737863624706, "Longitude": -122.41175410634398}, {"Facility Type": "DAY CARE CENTER", "Facility Number": 384000199.0, "Facility Name": "CHILDREN'S DAY SCHOOL, INC.", "Facility Address": "333 DOLORES STREET", "Facility City": "SAN FRANCISCO", "Facility Zip": 94110.0, "Facility Capacity": 72.0, "Facility Status": "LICENSED", "ELFA_Contracted": "No", "SFUSD_Site": "No", "SFUSD_School_Name": "", "Latitude": 37.75308597572262, "Longitude": -122.41179233649946}, {"Facility Type": "DAY CARE CENTER", "Facility Number": 380505035.0, "Facility Name": "CHINATOWN COMMUNITY CHILDREN'S CENTER", "Facility Address": "979 CLAY STREET", "Facility City": "SAN FRANCISCO", "Facility Zip": 94108.0, "Facility Capacity": 60.0, "Facility Status": "LICENSED", "ELFA_Contracted": "Yes", "SFUSD_Site": "No", "SFUSD_School_Name": "", "Latitude": 37.79762745746845, "Longitude": -122.40496999685828}, {"Facility Type": "DAY CARE CENTER", "Facility Number": 384002724.0, "Facility Name": "CHINATOWN COMMUNITY CHILDREN'S CENTER-NORTH BEACH", "Facility Address": "715 CHESTNUT STREET", "Facility City": "SAN FRANCISCO", "Facility Zip": 94133.0, "Facility Capacity": 24.0, "Facility Status": "LICENSED", "ELFA_Contracted": "Yes", "SFUSD_Site": "No", "SFUSD_School_Name": "", "Latitude": 37.79863291563235, "Longitude": -122.40577095143327}, {"Facility Type": "DAY CARE CENTER", "Facility Number": 384001964.0, "Facility Name": "CHINESE AMERICAN INTERNATIONAL SCHOOL", "Facility Address": "42 - 52 WALLER STREET", "Facility City": "SAN FRANCISCO", "Facility Zip": 94102.0, "Facility Capacity": 72.0, "Facility Status": "CLOSED", "ELFA_Contracted": "No", "SFUSD_Site": "No", "SFUSD_School_Name": "", "Latitude": 37.77889253780907, "Longitude": -122.42020418557352}, {"Facility Type": "DAY CARE CENTER", "Facility Number": 384002957.0, "Facility Name": "CIELITO LINDO MONTESSORI SCHOOL, LLC", "Facility Address": "101 GOLD MINE DRIVE", "Facility City": "SAN FRANCISCO", "Facility Zip": 94131.0, "Facility Capacity": 24.0, "Facility Status": "LICENSED", "ELFA_Contracted": "No", "SFUSD_Site": "No", "SFUSD_School_Name": "", "Latitude": 37.74461780091443, "Longitude": -122.43873432366141}, {"Facility Type": "DAY CARE CENTER", "Facility Number": 384003095.0, "Facility Name": "CITY SPROUTS PRESCHOOL", "Facility Address": "1466 38TH AVE", "Facility City": "SAN FRANCISCO", "Facility Zip": 94122.0, "Facility Capacity": 26.0, "Facility Status": "LICENSED", "ELFA_Contracted": "No", "SFUSD_Site": "No", "SFUSD_School_Name": "", "Latitude": 37.75361546703584, "Longitude": -122.48783177675375}, {"Facility Type": "DAY CARE CENTER", "Facility Number": 384002992.0, "Facility Name": "COLOR ME FRENCH PRESCHOOL LLC", "Facility Address": "125 CLEMENT STREET", "Facility City": "SAN FRANCISCO", "Facility Zip": 94118.0, "Facility Capacity": 19.0, "Facility Status": "LICENSED", "ELFA_Contracted": "No", "SFUSD_Site": "No", "SFUSD_School_Name": "", "Latitude": 37.77683578694372, "Longitude": -122.46296848958154}, {"Facility Type": "DAY CARE CENTER", "Facility Number": 384001831.0, "Facility Name": "COMMUNITY PRESCHOOL, GRACE CATHEDRAL, THE", "Facility Address": "1100 CALIFORNIA STREET", "Facility City": "SAN FRANCISCO", "Facility Zip": 94108.0, "Facility Capacity": 30.0, "Facility Status": "LICENSED", "ELFA_Contracted": "Yes", "SFUSD_Site": "No", "SFUSD_School_Name": "", "Latitude": 37.793248120168826, "Longitude": -122.40869595482118}, {"Facility Type": "DAY CARE CENTER", "Facility Number": 380506146.0, "Facility Name": "COMPANEROS DEL BARRIO, INC.", "Facility Address": "474-478 VALENCIA STREET", "Facility City": "SAN FRANCISCO", "Facility Zip": 94103.0, "Facility Capacity": 44.0, "Facility Status": "CLOSED", "ELFA_Contracted": "No", "SFUSD_Site": "No", "SFUSD_School_Name": "", "Latitude": 37.76758003451884, "Longitude": -122.41144816507648}, {"Facility Type": "DAY CARE CENTER", "Facility Number": 384000988.0, "Facility Name": "COMPASS CHILDREN'S CENTER - PRESCHOOL", "Facility Address": "144 LEAVENWORTH STREET", "Facility City": "SAN FRANCISCO", "Facility Zip": 94102.0, "Facility Capacity": 45.0, "Facility Status": "LICENSED", "ELFA_Contracted": "Yes", "SFUSD_Site": "No", "SFUSD_School_Name": "", "Latitude": 37.78453112414106, "Longitude": -122.42370321179779}, {"Facility Type": "DAY CARE CENTER", "Facility Number": 384000060.0, "Facility Name": "CONGREGATION EMANU-EL PRESCHOOL", "Facility Address": "2 LAKE STREET", "Facility City": "SAN FRANCISCO", "Facility Zip": 94118.0, "Facility Capacity": 90.0, "Facility Status": "LICENSED", "ELFA_Contracted": "No", "SFUSD_Site": "No", "SFUSD_School_Name": "", "Latitude": 37.780603170755995, "Longitude": -122.4642538545709}, {"Facility Type": "DAY CARE CENTER", "Facility Number": 380501237.0, "Facility Name": "CORNERSTONE ACADEMY", "Facility Address": "1925 LAWTON STREET", "Facility City": "SAN FRANCISCO", "Facility Zip": 94122.0, "Facility Capacity": 44.0, "Facility Status": "INACTIVE", "ELFA_Contracted": "No", "SFUSD_Site": "No", "SFUSD_School_Name": "", "Latitude": 37.75864492139703, "Longitude": -122.48375767690897}, {"Facility Type": "DAY CARE CENTER", "Facility Number": 380503897.0, "Facility Name": "CORNERSTONE ACADEMY", "Facility Address": "1943 LAWTON STREET", "Facility City": "SAN FRANCISCO", "Facility Zip": 94122.0, "Facility Capacity": 60.0, "Facility Status": "INACTIVE", "ELFA_Contracted": "No", "SFUSD_Site": "No", "SFUSD_School_Name": "", "Latitude": 37.76098438880406, "Longitude": -122.48267223428527}, {"Facility Type": "DAY CARE CENTER", "Facility Number": 380505466.0, "Facility Name": "CORNERSTONE ACADEMY", "Facility Address": "801 SILVER AVENUE", "Facility City": "SAN FRANCISCO", "Facility Zip": 94134.0, "Facility Capacity": 378.0, "Facility Status": "LICENSED", "ELFA_Contracted": "No", "SFUSD_Site": "No", "SFUSD_School_Name": "", "Latitude": 37.715639059786305, "Longitude": -122.41652869369382}, {"Facility Type": "DAY CARE CENTER", "Facility Number": 384001621.0, "Facility Name": "COW HOLLOW SCHOOL", "Facility Address": "65 FUNSTON AVE", "Facility City": "SAN FRANCISCO", "Facility Zip": 94129.0, "Facility Capacity": 60.0, "Facility Status": "CLOSED", "ELFA_Contracted": "No", "SFUSD_Site": "No", "SFUSD_School_Name": "", "Latitude": 37.84807682381962, "Longitude": -122.46202931619547}, {"Facility Type": "DAY CARE CENTER", "Facility Number": 384002662.0, "Facility Name": "CRAYON BOX PRESCHOOL, THE", "Facility Address": "3215 CESAR CHAVEZ", "Facility City": "SAN FRANCISCO", "Facility Zip": 94110.0, "Facility Capacity": 83.0, "Facility Status": "CLOSED", "ELFA_Contracted": "No", "SFUSD_Site": "No", "SFUSD_School_Name": "", "Latitude": 37.7494888489386, "Longitude": -122.4178774736956}, {"Facility Type": "DAY CARE CENTER", "Facility Number": 384004110.0, "Facility Name": "CREATIVE GARDENS", "Facility Address": "1429 VALENCIA STREET", "Facility City": "SAN FRANCISCO", "Facility Zip": 94110.0, "Facility Capacity": 56.0, "Facility Status": "LICENSED", "ELFA_Contracted": "No", "SFUSD_Site": "No", "SFUSD_School_Name": "", "Latitude": 37.749925412692555, "Longitude": -122.41607234376576}, {"Facility Type": "DAY CARE CENTER", "Facility Number": 384004021.0, "Facility Name": "CREATIVE MONTESSORI PRESCHOOL", "Facility Address": "3101 VICENTE STREET", "Facility City": "SAN FRANCISCO", "Facility Zip": 94116.0, "Facility Capacity": 52.0, "Facility Status": "LICENSED", "ELFA_Contracted": "No", "SFUSD_Site": "No", "SFUSD_School_Name": "", "Latitude": 37.747728975702486, "Longitude": -122.48482658770382}, {"Facility Type": "DAY CARE CENTER", "Facility Number": 384004684.0, "Facility Name": "CYPRESS SCHOOL OF SAN FRANCISCO", "Facility Address": "387 MORAGA AVENUE", "Facility City": "SAN FRANCISCO", "Facility Zip": 94129.0, "Facility Capacity": 150.0, "Facility Status": "LICENSED", "ELFA_Contracted": "No", "SFUSD_Site": "No", "SFUSD_School_Name": "", "Latitude": 37.812650142883996, "Longitude": -122.48653161782879}, {"Facility Type": "DAY CARE CENTER", "Facility Number": 384004471.0, "Facility Name": "DAHLIA SCHOOL, THE", "Facility Address": "116 CHANNEL STREET", "Facility City": "SAN FRANCISCO", "Facility Zip": 94158.0, "Facility Capacity": 42.0, "Facility Status": "LICENSED", "ELFA_Contracted": "Yes", "SFUSD_Site": "No", "SFUSD_School_Name": "", "Latitude": 37.77441279826788, "Longitude": -122.38941395631346}, {"Facility Type": "DAY CARE CENTER", "Facility Number": 384004802.0, "Facility Name": "DONUM DEI NEST PRESCHOOL", "Facility Address": "1550 TREAT AVENUE", "Facility City": "SAN FRANCISCO", "Facility Zip": 94110.0, "Facility Capacity": 16.0, "Facility Status": "LICENSED", "ELFA_Contracted": "No", "SFUSD_Site": "No", "SFUSD_School_Name": "", "Latitude": 37.74660076998971, "Longitude": -122.41991922190451}, {"Facility Type": "DAY CARE CENTER", "Facility Number": 384004089.0, "Facility Name": "EXCELSIOR FAMILY CONNECTIONS", "Facility Address": "5016 MISSION STREET", "Facility City": "SAN FRANCISCO", "Facility Zip": 94112.0, "Facility Capacity": 20.0, "Facility Status": "LICENSED", "ELFA_Contracted": "Yes", "SFUSD_Site": "No", "SFUSD_School_Name": "", "Latitude": 37.722252494677804, "Longitude": -122.44533701869426}, {"Facility Type": "DAY CARE CENTER", "Facility Number": 384004460.0, "Facility Name": "EXPLORER MANDARIN IMMERSION", "Facility Address": "1457 9TH AVENUE", "Facility City": "SAN FRANCISCO", "Facility Zip": 94122.0, "Facility Capacity": 38.0, "Facility Status": "LICENSED", "ELFA_Contracted": "No", "SFUSD_Site": "No", "SFUSD_School_Name": "", "Latitude": 37.75815506326146, "Longitude": -122.483478321192}, {"Facility Type": "DAY CARE CENTER", "Facility Number": 384002199.0, "Facility Name": "FACESSF - BAYVIEW PRESCHOOL", "Facility Address": "100 WHITNEY YOUNG CIRCLE", "Facility City": "SAN FRANCISCO", "Facility Zip": 94124.0, "Facility Capacity": 92.0, "Facility Status": "LICENSED", "ELFA_Contracted": "Yes", "SFUSD_Site": "No", "SFUSD_School_Name": "", "Latitude": 37.73030694712847, "Longitude": -122.39390569241439}, {"Facility Type": "DAY CARE CENTER", "Facility Number": 384002201.0, "Facility Name": "FACESSF - MASONIC PRESCHOOL", "Facility Address": "1101 MASONIC AVENUE", "Facility City": "SAN FRANCISCO", "Facility Zip": 94117.0, "Facility Capacity": 71.0, "Facility Status": "LICENSED", "ELFA_Contracted": "Yes", "SFUSD_Site": "No", "SFUSD_School_Name": "", "Latitude": 37.766973076160625, "Longitude": -122.4428407279667}, {"Facility Type": "DAY CARE CENTER", "Facility Number": 384000274.0, "Facility Name": "FAMILY CONNECTIONS CENTERS - PRESCHOOL", "Facility Address": "2565 SAN BRUNO AVENUE", "Facility City": "SAN FRANCISCO", "Facility Zip": 94134.0, "Facility Capacity": 18.0, "Facility Status": "LICENSED", "ELFA_Contracted": "Yes", "SFUSD_Site": "No", "SFUSD_School_Name": "", "Latitude": 37.72082840631774, "Longitude": -122.41209259367213}, {"Facility Type": "DAY CARE CENTER", "Facility Number": 380505568.0, "Facility Name": "FAMILY DEVELOPMENTAL CENTER (PRESCHOOL)", "Facility Address": "2730 BRYANT STREET", "Facility City": "SAN FRANCISCO", "Facility Zip": 94110.0, "Facility Capacity": 83.0, "Facility Status": "LICENSED", "ELFA_Contracted": "Yes", "SFUSD_Site": "No", "SFUSD_School_Name": "", "Latitude": 37.753696119949275, "Longitude": -122.42078763588817}, {"Facility Type": "DAY CARE CENTER", "Facility Number": 384000805.0, "Facility Name": "FAMILY SCHOOL CHILD DEVL.CTR.-BERNAL GATEWAY, THE", "Facility Address": "3101 MISSION STREET", "Facility City": "SAN FRANCISCO", "Facility Zip": 94110.0, "Facility Capacity": 16.0, "Facility Status": "LICENSED", "ELFA_Contracted": "Yes", "SFUSD_Site": "No", "SFUSD_School_Name": "", "Latitude": 37.75294067489508, "Longitude": -122.41426254320918}, {"Facility Type": "DAY CARE CENTER", "Facility Number": 384002729.0, "Facility Name": "FELTON LEARNING CENTER", "Facility Address": "300 LELAND AVENUE", "Facility City": "SAN FRANCISCO", "Facility Zip": 94134.0, "Facility Capacity": 36.0, "Facility Status": "LICENSED", "ELFA_Contracted": "No", "SFUSD_Site": "No", "SFUSD_School_Name": "", "Latitude": 37.71670636324477, "Longitude": -122.41593300651702}, {"Facility Type": "DAY CARE CENTER", "Facility Number": 384000799.0, "Facility Name": "FRANDELJA ENRICHMENT CENTER (PRESCHOOL)", "Facility Address": "950 GILMAN STREET", "Facility City": "SAN FRANCISCO", "Facility Zip": 94124.0, "Facility Capacity": 30.0, "Facility Status": "CLOSED", "ELFA_Contracted": "No", "SFUSD_Site": "No", "SFUSD_School_Name": "", "Latitude": 37.732310236229, "Longitude": -122.39351498139129}, {"Facility Type": "DAY CARE CENTER", "Facility Number": 384002982.0, "Facility Name": "FRANDELJA FAIRFAX", "Facility Address": "901 B FAIRFAX AVENUE", "Facility City": "SAN FRANCISCO", "Facility Zip": 94124.0, "Facility Capacity": 56.0, "Facility Status": "LICENSED", "ELFA_Contracted": "Yes", "SFUSD_Site": "No", "SFUSD_School_Name": "", "Latitude": 37.72601910174641, "Longitude": -122.39390853776895}, {"Facility Type": "DAY CARE CENTER", "Facility Number": 384002303.0, "Facility Name": "FRIENDS OF POTRERO HILL NURSERY SCHOOL", "Facility Address": "1060-A TENNESSEE STREET", "Facility City": "SAN FRANCISCO", "Facility Zip": 94107.0, "Facility Capacity": 30.0, "Facility Status": "LICENSED", "ELFA_Contracted": "No", "SFUSD_Site": "No", "SFUSD_School_Name": "", "Latitude": 37.76463366351458, "Longitude": -122.39498636812814}, {"Facility Type": "DAY CARE CENTER", "Facility Number": 380504229.0, "Facility Name": "FRIENDS OF ST. FRANCIS CHILDCARE CENTER, INC.", "Facility Address": "50 BELCHER STREET", "Facility City": "SAN FRANCISCO", "Facility Zip": 94114.0, "Facility Capacity": 38.0, "Facility Status": "LICENSED", "ELFA_Contracted": "Yes", "SFUSD_Site": "No", "SFUSD_School_Name": "", "Latitude": 37.754962384317125, "Longitude": -122.43947279761326}, {"Facility Type": "DAY CARE CENTER", "Facility Number": 384004491.0, "Facility Name": "FUN WITH MANDARIN PRESCHOOL LLC", "Facility Address": "327 CAPITOL AVENUE", "Facility City": "SAN FRANCISCO", "Facility Zip": 94112.0, "Facility Capacity": 66.0, "Facility Status": "LICENSED", "ELFA_Contracted": "Yes", "SFUSD_Site": "No", "SFUSD_School_Name": "", "Latitude": 37.721868196404365, "Longitude": -122.44558215138308}, {"Facility Type": "DAY CARE CENTER", "Facility Number": 384002445.0, "Facility Name": "GAN NOE PRESCHOOL", "Facility Address": "3781 CESAR CHAVEZ STREET", "Facility City": "SAN FRANCISCO", "Facility Zip": 94110.0, "Facility Capacity": 30.0, "Facility Status": "LICENSED", "ELFA_Contracted": "No", "SFUSD_Site": "No", "SFUSD_School_Name": "", "Latitude": 37.74487308073958, "Longitude": -122.4207918113201}, {"Facility Type": "DAY CARE CENTER", "Facility Number": 384004582.0, "Facility Name": "GARDEN SCHOOL, THE", "Facility Address": "4037 24TH STREET", "Facility City": "SAN FRANCISCO", "Facility Zip": 94114.0, "Facility Capacity": 24.0, "Facility Status": "LICENSED", "ELFA_Contracted": "No", "SFUSD_Site": "No", "SFUSD_School_Name": "", "Latitude": 37.75796116050651, "Longitude": -122.43355776825946}, {"Facility Type": "DAY CARE CENTER", "Facility Number": 380504276.0, "Facility Name": "GATES AND BRIDGES PRESCHOOL", "Facility Address": "1601 10TH AVENUE", "Facility City": "SAN FRANCISCO", "Facility Zip": 94122.0, "Facility Capacity": 16.0, "Facility Status": "LICENSED", "ELFA_Contracted": "No", "SFUSD_Site": "No", "SFUSD_School_Name": "", "Latitude": 37.762126875049745, "Longitude": -122.48634573406225}, {"Facility Type": "DAY CARE CENTER", "Facility Number": 384004290.0, "Facility Name": "GERMAN INTERNATIONAL SCHOOL OF SILICON VALLEY", "Facility Address": "117 DIAMOND STREET", "Facility City": "SAN FRANCISCO", "Facility Zip": 94114.0, "Facility Capacity": 64.0, "Facility Status": "LICENSED", "ELFA_Contracted": "No", "SFUSD_Site": "No", "SFUSD_School_Name": "", "Latitude": 37.7564567649669, "Longitude": -122.43646977809448}, {"Facility Type": "DAY CARE CENTER", "Facility Number": 384000740.0, "Facility Name": "GLEN PARK MONTESSORI", "Facility Address": "647 CHENERY STREET", "Facility City": "SAN FRANCISCO", "Facility Zip": 94131.0, "Facility Capacity": 36.0, "Facility Status": "LICENSED", "ELFA_Contracted": "No", "SFUSD_Site": "No", "SFUSD_School_Name": "", "Latitude": 37.74720499261268, "Longitude": -122.43532992488744}, {"Facility Type": "DAY CARE CENTER", "Facility Number": 380500240.0, "Facility Name": "GLENRIDGE COOPERATIVE NURSERY SCHOOL", "Facility Address": "GLEN PARK CANYON (CHENERY-ELK)", "Facility City": "SAN FRANCISCO", "Facility Zip": 94131.0, "Facility Capacity": 25.0, "Facility Status": "LICENSED", "ELFA_Contracted": "No", "SFUSD_Site": "No", "SFUSD_School_Name": "", "Latitude": 37.746081311957006, "Longitude": -122.43773346363645}, {"Facility Type": "DAY CARE CENTER", "Facility Number": 384000531.0, "Facility Name": "GLIDE CHILD CARE & FAMILY SUPPORT", "Facility Address": "434 ELLIS STREET", "Facility City": "SAN FRANCISCO", "Facility Zip": 94102.0, "Facility Capacity": 42.0, "Facility Status": "LICENSED", "ELFA_Contracted": "Yes", "SFUSD_Site": "No", "SFUSD_School_Name": "", "Latitude": 37.77870599039518, "Longitude": -122.42020119433657}, {"Facility Type": "DAY CARE CENTER", "Facility Number": 384002090.0, "Facility Name": "GOLDEN GATE GUPPIES PRESCHOOL,  LLC", "Facility Address": "2426 CALIFORNIA STREET", "Facility City": "SAN FRANCISCO", "Facility Zip": 94115.0, "Facility Capacity": 33.0, "Facility Status": "CLOSED", "ELFA_Contracted": "No", "SFUSD_Site": "No", "SFUSD_School_Name": "", "Latitude": 37.79065756539351, "Longitude": -122.43681107954154}, {"Facility Type": "DAY CARE CENTER", "Facility Number": 384004598.0, "Facility Name": "GOOD SAMARITAN FAMILY RESOURCE CENTER", "Facility Address": "2050 FOLSOM STREET", "Facility City": "SAN FRANCISCO", "Facility Zip": 94110.0, "Facility Capacity": 48.0, "Facility Status": "LICENSED", "ELFA_Contracted": "Yes", "SFUSD_Site": "No", "SFUSD_School_Name": "", "Latitude": 37.747753459451786, "Longitude": -122.4126107028837}, {"Facility Type": "DAY CARE CENTER", "Facility Number": 384000227.0, "Facility Name": "GOOD SAMARITAN FAMILY RESOURCE CENTER CDC", "Facility Address": "1294 POTRERO AVENUE", "Facility City": "SAN FRANCISCO", "Facility Zip": 94110.0, "Facility Capacity": 36.0, "Facility Status": "LICENSED", "ELFA_Contracted": "Yes", "SFUSD_Site": "No", "SFUSD_School_Name": "", "Latitude": 37.74904811029766, "Longitude": -122.41949365086334}, {"Facility Type": "DAY CARE CENTER", "Facility Number": 380505360.0, "Facility Name": "GRACE FOUNTAIN DAY CARE CENTER", "Facility Address": "1145 CABRILLO STREET", "Facility City": "SAN FRANCISCO", "Facility Zip": 94118.0, "Facility Capacity": 36.0, "Facility Status": "CLOSED", "ELFA_Contracted": "No", "SFUSD_Site": "No", "SFUSD_School_Name": "", "Latitude": 37.780757391639206, "Longitude": -122.46556807656175}, {"Facility Type": "DAY CARE CENTER", "Facility Number": 384002631.0, "Facility Name": "GROWING PLACE FAMILY PRESCHOOL AND PARENTING CTR.", "Facility Address": "1250 QUINTARA STREET", "Facility City": "SAN FRANCISCO", "Facility Zip": 94116.0, "Facility Capacity": 58.0, "Facility Status": "LICENSED", "ELFA_Contracted": "Yes", "SFUSD_Site": "No", "SFUSD_School_Name": "", "Latitude": 37.744487174487574, "Longitude": -122.4864059225086}, {"Facility Type": "DAY CARE CENTER", "Facility Number": 384002454.0, "Facility Name": "GROWING TREE SCHOOL LLC, THE (PS)", "Facility Address": "1984 GREAT HIGHWAY", "Facility City": "SAN FRANCISCO", "Facility Zip": 94116.0, "Facility Capacity": 73.0, "Facility Status": "LICENSED", "ELFA_Contracted": "Yes", "SFUSD_Site": "No", "SFUSD_School_Name": "", "Latitude": 37.7457007141456, "Longitude": -122.48397449394484}, {"Facility Type": "DAY CARE CENTER", "Facility Number": 384004669.0, "Facility Name": "GUIDEPOST MONTESSORI AT FORT MASON", "Facility Address": "3741 BUCHANAN STREET", "Facility City": "SAN FRANCISCO", "Facility Zip": 94123.0, "Facility Capacity": 18.0, "Facility Status": "CLOSED", "ELFA_Contracted": "No", "SFUSD_Site": "No", "SFUSD_School_Name": "", "Latitude": 37.8030384804982, "Longitude": -122.43328463923068}, {"Facility Type": "DAY CARE CENTER", "Facility Number": 380500254.0, "Facility Name": "HAIGHT ASHBURY COOPERATIVE NURSERY SCHOOL", "Facility Address": "1180 STANYAN STREET", "Facility City": "SAN FRANCISCO", "Facility Zip": 94117.0, "Facility Capacity": 24.0, "Facility Status": "LICENSED", "ELFA_Contracted": "No", "SFUSD_Site": "No", "SFUSD_School_Name": "", "Latitude": 37.76634769066662, "Longitude": -122.4395660122455}, {"Facility Type": "DAY CARE CENTER", "Facility Number": 384001687.0, "Facility Name": "HAPPY DAY PRESCHOOL", "Facility Address": "809 TARAVAL STREET", "Facility City": "SAN FRANCISCO", "Facility Zip": 94116.0, "Facility Capacity": 30.0, "Facility Status": "LICENSED", "ELFA_Contracted": "No", "SFUSD_Site": "No", "SFUSD_School_Name": "", "Latitude": 37.73968044764277, "Longitude": -122.48828800025564}, {"Facility Type": "DAY CARE CENTER", "Facility Number": 384001382.0, "Facility Name": "HEARING AND SPEECH CENTER OF NORTHERN CALIFORNIA", "Facility Address": "1234 DIVISADERO ST.", "Facility City": "SAN FRANCISCO", "Facility Zip": 94115.0, "Facility Capacity": 20.0, "Facility Status": "CLOSED", "ELFA_Contracted": "No", "SFUSD_Site": "No", "SFUSD_School_Name": "", "Latitude": 37.78937019944993, "Longitude": -122.43278786915918}, {"Facility Type": "DAY CARE CENTER", "Facility Number": 380506508.0, "Facility Name": "HELEN HAWK CHILDREN'S CENTER - PRESCHOOL", "Facility Address": "111 PAGE STREET", "Facility City": "SAN FRANCISCO", "Facility Zip": 94102.0, "Facility Capacity": 9.0, "Facility Status": "LICENSED", "ELFA_Contracted": "Yes", "SFUSD_Site": "No", "SFUSD_School_Name": "", "Latitude": 37.77494373582075, "Longitude": -122.41635296002718}, {"Facility Type": "DAY CARE CENTER", "Facility Number": 384003072.0, "Facility Name": "HELP U GROW (HUG)", "Facility Address": "3830 NORIEGA STREET", "Facility City": "SAN FRANCISCO", "Facility Zip": 94122.0, "Facility Capacity": 39.0, "Facility Status": "LICENSED", "ELFA_Contracted": "No", "SFUSD_Site": "No", "SFUSD_School_Name": "", "Latitude": 37.76266688029102, "Longitude": -122.48883200107844}, {"Facility Type": "DAY CARE CENTER", "Facility Number": 380500308.0, "Facility Name": "HOLY FAMILY DAY HOME", "Facility Address": "299 DOLORES STREET", "Facility City": "SAN FRANCISCO", "Facility Zip": 94103.0, "Facility Capacity": 150.0, "Facility Status": "LICENSED", "ELFA_Contracted": "Yes", "SFUSD_Site": "No", "SFUSD_School_Name": "", "Latitude": 37.77300982524046, "Longitude": -122.408541718263}, {"Facility Type": "DAY CARE CENTER", "Facility Number": 384002235.0, "Facility Name": "HOLY NAME PRESCHOOL", "Facility Address": "1560 40TH AVENUE", "Facility City": "SAN FRANCISCO", "Facility Zip": 94122.0, "Facility Capacity": 75.0, "Facility Status": "LICENSED", "ELFA_Contracted": "No", "SFUSD_Site": "No", "SFUSD_School_Name": "", "Latitude": 37.7547509229452, "Longitude": -122.4823772519409}, {"Facility Type": "DAY CARE CENTER", "Facility Number": 384002426.0, "Facility Name": "ICRI-PROJECT COMMOTION-LAS LUCIERNAGAS", "Facility Address": "2095 HARRISON STREET", "Facility City": "SAN FRANCISCO", "Facility Zip": 94110.0, "Facility Capacity": 12.0, "Facility Status": "CLOSED", "ELFA_Contracted": "No", "SFUSD_Site": "No", "SFUSD_School_Name": "", "Latitude": 37.75368198437574, "Longitude": -122.41534392928347}, {"Facility Type": "DAY CARE CENTER", "Facility Number": 384002504.0, "Facility Name": "INTERNATIONAL SCHOOL OF SAN FRANCISCO, THE", "Facility Address": "1155 PAGE STREET", "Facility City": "SAN FRANCISCO", "Facility Zip": 94117.0, "Facility Capacity": 170.0, "Facility Status": "LICENSED", "ELFA_Contracted": "No", "SFUSD_Site": "No", "SFUSD_School_Name": "", "Latitude": 37.77022082379168, "Longitude": -122.44583993025816}, {"Facility Type": "DAY CARE CENTER", "Facility Number": 380500086.0, "Facility Name": "JCCSF BROTHERHOOD WAY PRESCHOOL", "Facility Address": "655 BROTHERHOOD WAY", "Facility City": "SAN FRANCISCO", "Facility Zip": 94132.0, "Facility Capacity": 116.0, "Facility Status": "LICENSED", "ELFA_Contracted": "No", "SFUSD_Site": "No", "SFUSD_School_Name": "", "Latitude": 37.726851021177474, "Longitude": -122.47473938051252}, {"Facility Type": "DAY CARE CENTER", "Facility Number": 384001263.0, "Facility Name": "JCCSF HELEN DILLER FAMILY PRESCHOOL", "Facility Address": "3200 CALIFORNIA STREET", "Facility City": "SAN FRANCISCO", "Facility Zip": 94118.0, "Facility Capacity": 175.0, "Facility Status": "LICENSED", "ELFA_Contracted": "No", "SFUSD_Site": "No", "SFUSD_School_Name": "", "Latitude": 37.77779300452882, "Longitude": -122.46387413886292}, {"Facility Type": "DAY CARE CENTER", "Facility Number": 380504700.0, "Facility Name": "JCCSF LOISE& CLAUDE ROSENBERG EARLY CHILDHOOD CTR", "Facility Address": "325 ARGUELLO BLVD.", "Facility City": "SAN FRANCISCO", "Facility Zip": 94118.0, "Facility Capacity": 59.0, "Facility Status": "LICENSED", "ELFA_Contracted": "No", "SFUSD_Site": "No", "SFUSD_School_Name": "", "Latitude": 37.78483214334126, "Longitude": -122.46434725817304}, {"Facility Type": "DAY CARE CENTER", "Facility Number": 384000303.0, "Facility Name": "JEWISH FAMILY PRESCHOOL-CONGREGATION BETH SHOLOM", "Facility Address": "301 14TH AVENUE", "Facility City": "SAN FRANCISCO", "Facility Zip": 94118.0, "Facility Capacity": 76.0, "Facility Status": "LICENSED", "ELFA_Contracted": "Yes", "SFUSD_Site": "No", "SFUSD_School_Name": "", "Latitude": 37.784530594531255, "Longitude": -122.46405537039341}, {"Facility Type": "DAY CARE CENTER", "Facility Number": 384004285.0, "Facility Name": "JUST KIDS PRESCHOOL", "Facility Address": "5727 GEARY BLVD.", "Facility City": "SAN FRANCISCO", "Facility Zip": 94121.0, "Facility Capacity": 24.0, "Facility Status": "LICENSED", "ELFA_Contracted": "Yes", "SFUSD_Site": "No", "SFUSD_School_Name": "", "Latitude": 37.77851252284387, "Longitude": -122.49647120685731}, {"Facility Type": "DAY CARE CENTER", "Facility Number": 380505563.0, "Facility Name": "KAI MING HEAD START-DR. T. KONG LEE CENTER", "Facility Address": "950 POWELL STREET", "Facility City": "SAN FRANCISCO", "Facility Zip": 94108.0, "Facility Capacity": 20.0, "Facility Status": "LICENSED", "ELFA_Contracted": "Yes", "SFUSD_Site": "No", "SFUSD_School_Name": "", "Latitude": 37.79876952433502, "Longitude": -122.40700720958905}, {"Facility Type": "DAY CARE CENTER", "Facility Number": 384001291.0, "Facility Name": "KAI MING HEAD START-GEARY CENTER", "Facility Address": "6221 GEARY BLVD.", "Facility City": "SAN FRANCISCO", "Facility Zip": 94121.0, "Facility Capacity": 49.0, "Facility Status": "LICENSED", "ELFA_Contracted": "Yes", "SFUSD_Site": "No", "SFUSD_School_Name": "", "Latitude": 37.78112352844282, "Longitude": -122.49473608386516}, {"Facility Type": "DAY CARE CENTER", "Facility Number": 384001489.0, "Facility Name": "KAI MING HEAD START-NORTH BEACH CENTER", "Facility Address": "1170 COLUMBUS AVENUE", "Facility City": "SAN FRANCISCO", "Facility Zip": 94133.0, "Facility Capacity": 40.0, "Facility Status": "LICENSED", "ELFA_Contracted": "Yes", "SFUSD_Site": "No", "SFUSD_School_Name": "", "Latitude": 37.796753598186825, "Longitude": -122.41097357719595}, {"Facility Type": "DAY CARE CENTER", "Facility Number": 384001019.0, "Facility Name": "KAI MING HEAD START-RICHMOND", "Facility Address": "426 33RD AVENUE, 2ND FLOOR", "Facility City": "SAN FRANCISCO", "Facility Zip": 94121.0, "Facility Capacity": 30.0, "Facility Status": "LICENSED", "ELFA_Contracted": "Yes", "SFUSD_Site": "No", "SFUSD_School_Name": "", "Latitude": 37.78092667518329, "Longitude": -122.49361216774587}, {"Facility Type": "DAY CARE CENTER", "Facility Number": 384001838.0, "Facility Name": "KAI MING HEAD START - BROADWAY CENTER", "Facility Address": "820 BATTERY STREET", "Facility City": "SAN FRANCISCO", "Facility Zip": 94111.0, "Facility Capacity": 20.0, "Facility Status": "LICENSED", "ELFA_Contracted": "Yes", "SFUSD_Site": "No", "SFUSD_School_Name": "", "Latitude": 37.79828231024044, "Longitude": -122.4084928368432}, {"Facility Type": "DAY CARE CENTER", "Facility Number": 384002582.0, "Facility Name": "KAI MING HEAD START - ST. LUKE CENTER (PS)", "Facility Address": "1755 CLAY STREET", "Facility City": "SAN FRANCISCO", "Facility Zip": 94109.0, "Facility Capacity": 72.0, "Facility Status": "LICENSED", "ELFA_Contracted": "Yes", "SFUSD_Site": "No", "SFUSD_School_Name": "", "Latitude": 37.79453899988536, "Longitude": -122.42595877878097}, {"Facility Type": "DAY CARE CENTER", "Facility Number": 384001393.0, "Facility Name": "KAI MING HEAD START - SUNSET CENTER", "Facility Address": "2800 TARAVAL STREET", "Facility City": "SAN FRANCISCO", "Facility Zip": 94116.0, "Facility Capacity": 45.0, "Facility Status": "LICENSED", "ELFA_Contracted": "Yes", "SFUSD_Site": "No", "SFUSD_School_Name": "", "Latitude": 37.746732127786856, "Longitude": -122.48694910100595}, {"Facility Type": "DAY CARE CENTER", "Facility Number": 384004402.0, "Facility Name": "KAI MING PMSQUARE CHILDREN'S CENTER-PS", "Facility Address": "671 CHINA BASIN STREET", "Facility City": "SAN FRANCISCO", "Facility Zip": 94158.0, "Facility Capacity": 20.0, "Facility Status": "LICENSED", "ELFA_Contracted": "Yes", "SFUSD_Site": "No", "SFUSD_School_Name": "", "Latitude": 37.768799790899514, "Longitude": -122.391758177299}, {"Facility Type": "DAY CARE CENTER", "Facility Number": 384002726.0, "Facility Name": "KAI MING RAINBOW PRESCHOOL CENTER", "Facility Address": "799 PACIFIC AVENUE", "Facility City": "SAN FRANCISCO", "Facility Zip": 94133.0, "Facility Capacity": 20.0, "Facility Status": "LICENSED", "ELFA_Contracted": "Yes", "SFUSD_Site": "No", "SFUSD_School_Name": "", "Latitude": 37.7998881682126, "Longitude": -122.40595436371906}, {"Facility Type": "DAY CARE CENTER", "Facility Number": 384002312.0, "Facility Name": "KANGAROOS PRESCHOOL II", "Facility Address": "298 MONTEREY BLVD.", "Facility City": "SAN FRANCISCO", "Facility Zip": 94131.0, "Facility Capacity": 39.0, "Facility Status": "LICENSED", "ELFA_Contracted": "Yes", "SFUSD_Site": "No", "SFUSD_School_Name": "", "Latitude": 37.745984475832095, "Longitude": -122.43585578000777}, {"Facility Type": "DAY CARE CENTER", "Facility Number": 380504523.0, "Facility Name": "KATHERINE MICHIELS SCHOOL (PRE-K)", "Facility Address": "1335 GUERRERO", "Facility City": "SAN FRANCISCO", "Facility Zip": 94110.0, "Facility Capacity": 36.0, "Facility Status": "LICENSED", "ELFA_Contracted": "No", "SFUSD_Site": "No", "SFUSD_School_Name": "", "Latitude": 37.74533230027123, "Longitude": -122.41796110703788}, {"Facility Type": "DAY CARE CENTER", "Facility Number": 384001720.0, "Facility Name": "KIDS BY THE BAY - PRESCHOOL", "Facility Address": "90 SEVENTH STREET", "Facility City": "SAN FRANCISCO", "Facility Zip": 94103.0, "Facility Capacity": 78.0, "Facility Status": "CLOSED", "ELFA_Contracted": "No", "SFUSD_Site": "No", "SFUSD_School_Name": "", "Latitude": 37.773938248847635, "Longitude": -122.41027875300956}, {"Facility Type": "DAY CARE CENTER", "Facility Number": 380505246.0, "Facility Name": "KIDS KOLLEGE PRESCHOOL DAY CARE", "Facility Address": "3939 LAWTON STREET", "Facility City": "SAN FRANCISCO", "Facility Zip": 94122.0, "Facility Capacity": 60.0, "Facility Status": "LICENSED", "ELFA_Contracted": "No", "SFUSD_Site": "No", "SFUSD_School_Name": "", "Latitude": 37.76284427996105, "Longitude": -122.48341213354607}, {"Facility Type": "DAY CARE CENTER", "Facility Number": 384002638.0, "Facility Name": "KINDERHAUS, A GERMAN INTERNATIONAL PRESCHOOL", "Facility Address": "198 WATERVILLE STREET", "Facility City": "SAN FRANCISCO", "Facility Zip": 94124.0, "Facility Capacity": 18.0, "Facility Status": "LICENSED", "ELFA_Contracted": "No", "SFUSD_Site": "No", "SFUSD_School_Name": "", "Latitude": 37.733865264956584, "Longitude": -122.38702609034651}, {"Facility Type": "DAY CARE CENTER", "Facility Number": 380505320.0, "Facility Name": "KROUZIAN-ZEKARIAN-VASBOURAGAN ARMENIAN PRESCHOOL", "Facility Address": "825 BROTHERHOOD WAY", "Facility City": "SAN FRANCISCO", "Facility Zip": 94132.0, "Facility Capacity": 42.0, "Facility Status": "LICENSED", "ELFA_Contracted": "Yes", "SFUSD_Site": "No", "SFUSD_School_Name": "", "Latitude": 37.72137834786077, "Longitude": -122.4795159516947}, {"Facility Type": "DAY CARE CENTER", "Facility Number": 384004574.0, "Facility Name": "L'ACADEMY LANGUAGE IMMERSION PRESCHOOL SF CPMC PS", "Facility Address": "1060 GEARY STREET", "Facility City": "SAN FRANCISCO", "Facility Zip": 94109.0, "Facility Capacity": 24.0, "Facility Status": "LICENSED", "ELFA_Contracted": "Yes", "SFUSD_Site": "No", "SFUSD_School_Name": "", "Latitude": 37.79388361473792, "Longitude": -122.42279800057972}, {"Facility Type": "DAY CARE CENTER", "Facility Number": 384004150.0, "Facility Name": "L'ACADEMY PRESCHOOL SF HAYES VALLEY", "Facility Address": "49 PAGE STREET", "Facility City": "SAN FRANCISCO", "Facility Zip": 94105.0, "Facility Capacity": 38.0, "Facility Status": "CLOSED", "ELFA_Contracted": "No", "SFUSD_Site": "No", "SFUSD_School_Name": "", "Latitude": 37.78679900679663, "Longitude": -122.39077912700998}, {"Facility Type": "DAY CARE CENTER", "Facility Number": 384004192.0, "Facility Name": "L'ACADEMY PRESCHOOL SF NOB HILL", "Facility Address": "1868 VAN NESS AVENUE UNIT 1", "Facility City": "SAN FRANCISCO", "Facility Zip": 94109.0, "Facility Capacity": 26.0, "Facility Status": "LICENSED", "ELFA_Contracted": "Yes", "SFUSD_Site": "No", "SFUSD_School_Name": "", "Latitude": 37.79031829968475, "Longitude": -122.42592573513073}, {"Facility Type": "DAY CARE CENTER", "Facility Number": 384004297.0, "Facility Name": "L'ACADEMY PRESCHOOL SF SOMA", "Facility Address": "322 8TH STREET", "Facility City": "SAN FRANCISCO", "Facility Zip": 94103.0, "Facility Capacity": 39.0, "Facility Status": "LICENSED", "ELFA_Contracted": "Yes", "SFUSD_Site": "No", "SFUSD_School_Name": "", "Latitude": 37.76976909849219, "Longitude": -122.41198233631211}, {"Facility Type": "DAY CARE CENTER", "Facility Number": 384002595.0, "Facility Name": "LA PICCOLA SCUOLA ITALIANA", "Facility Address": "851 TENNESSEE STREET", "Facility City": "SAN FRANCISCO", "Facility Zip": 94107.0, "Facility Capacity": 64.0, "Facility Status": "LICENSED", "ELFA_Contracted": "No", "SFUSD_Site": "No", "SFUSD_School_Name": "", "Latitude": 37.760709186079794, "Longitude": -122.39672464041453}, {"Facility Type": "DAY CARE CENTER", "Facility Number": 384002073.0, "Facility Name": "LA SCUOLA INTERNATIONAL SCHOOL", "Facility Address": "728 - 20TH STREET", "Facility City": "SAN FRANCISCO", "Facility Zip": 94107.0, "Facility Capacity": 100.0, "Facility Status": "LICENSED", "ELFA_Contracted": "No", "SFUSD_Site": "No", "SFUSD_School_Name": "", "Latitude": 37.757702241659565, "Longitude": -122.40338435360475}, {"Facility Type": "DAY CARE CENTER", "Facility Number": 380500371.0, "Facility Name": "LAKESIDE PRESBYTERIAN CHURCH NURSERY SCHOOL", "Facility Address": "201 EUCALYPTUS DRIVE", "Facility City": "SAN FRANCISCO", "Facility Zip": 94132.0, "Facility Capacity": 75.0, "Facility Status": "LICENSED", "ELFA_Contracted": "No", "SFUSD_Site": "No", "SFUSD_School_Name": "", "Latitude": 37.72676942156669, "Longitude": -122.47442071806705}, {"Facility Type": "DAY CARE CENTER", "Facility Number": 380506270.0, "Facility Name": "LAND'S END SCHOOL - PRESCHOOL, THE", "Facility Address": "4150 CLEMENT ST BUILDING T-32", "Facility City": "SAN FRANCISCO", "Facility Zip": 94121.0, "Facility Capacity": 30.0, "Facility Status": "LICENSED", "ELFA_Contracted": "Yes", "SFUSD_Site": "No", "SFUSD_School_Name": "", "Latitude": 37.77244998905455, "Longitude": -122.49073737191866}, {"Facility Type": "DAY CARE CENTER", "Facility Number": 384004788.0, "Facility Name": "LANGUAGE IN ACTION", "Facility Address": "649 DIAMOND STREET", "Facility City": "SAN FRANCISCO", "Facility Zip": 94114.0, "Facility Capacity": 14.0, "Facility Status": "CLOSED", "ELFA_Contracted": "No", "SFUSD_Site": "No", "SFUSD_School_Name": "", "Latitude": 37.75661268335231, "Longitude": -122.43366705743834}, {"Facility Type": "DAY CARE CENTER", "Facility Number": 384002480.0, "Facility Name": "LANGUAGE IN ACTION-JOSE CORONADO CLUBHOUSE (PS)", "Facility Address": "2498 FOLSOM STREET", "Facility City": "SAN FRANCISCO", "Facility Zip": 94110.0, "Facility Capacity": 22.0, "Facility Status": "CLOSED", "ELFA_Contracted": "No", "SFUSD_Site": "No", "SFUSD_School_Name": "", "Latitude": 37.74855536465295, "Longitude": -122.41288434931401}, {"Facility Type": "DAY CARE CENTER", "Facility Number": 384002479.0, "Facility Name": "LANGUAGE IN ACTION-NOE VALLEY MINISTRY (PS)", "Facility Address": "1021 SANCHEZ STREET", "Facility City": "SAN FRANCISCO", "Facility Zip": 94114.0, "Facility Capacity": 49.0, "Facility Status": "LICENSED", "ELFA_Contracted": "No", "SFUSD_Site": "No", "SFUSD_School_Name": "", "Latitude": 37.75313143754729, "Longitude": -122.43868625583072}, {"Facility Type": "DAY CARE CENTER", "Facility Number": 384002045.0, "Facility Name": "LANGUAGE IN ACTION - SF", "Facility Address": "1 MILEY STREET", "Facility City": "SAN FRANCISCO", "Facility Zip": 94123.0, "Facility Capacity": 15.0, "Facility Status": "LICENSED", "ELFA_Contracted": "No", "SFUSD_Site": "No", "SFUSD_School_Name": "", "Latitude": 37.80035528639561, "Longitude": -122.43133823252789}, {"Facility Type": "DAY CARE CENTER", "Facility Number": 384002044.0, "Facility Name": "LANGUAGE IN ACTION - SF", "Facility Address": "301 EUCLID AVENUE", "Facility City": "SAN FRANCISCO", "Facility Zip": 94118.0, "Facility Capacity": 20.0, "Facility Status": "LICENSED", "ELFA_Contracted": "No", "SFUSD_Site": "No", "SFUSD_School_Name": "", "Latitude": 37.777378956557904, "Longitude": -122.46066165781836}, {"Facility Type": "DAY CARE CENTER", "Facility Number": 384004176.0, "Facility Name": "LAUREL HEIGHTS CHILD DEVELOPMENT CENTER(PS)", "Facility Address": "2675 GEARY BLVD. SUITE 400", "Facility City": "SAN FRANCISCO", "Facility Zip": 94118.0, "Facility Capacity": 110.0, "Facility Status": "LICENSED", "ELFA_Contracted": "No", "SFUSD_Site": "No", "SFUSD_School_Name": "", "Latitude": 37.77640332534231, "Longitude": -122.46868149371473}, {"Facility Type": "DAY CARE CENTER", "Facility Number": 380504783.0, "Facility Name": "LAUREL HILL NURSERY SCHOOL", "Facility Address": "401 EUCLID AVENUE", "Facility City": "SAN FRANCISCO", "Facility Zip": 94118.0, "Facility Capacity": 59.0, "Facility Status": "LICENSED", "ELFA_Contracted": "No", "SFUSD_Site": "No", "SFUSD_School_Name": "", "Latitude": 37.78120891098842, "Longitude": -122.46949886686247}, {"Facility Type": "DAY CARE CENTER", "Facility Number": 384000353.0, "Facility Name": "LEARNING BRIDGE PRESCHOOL, THE", "Facility Address": "1050 KIRKHAM STREET", "Facility City": "SAN FRANCISCO", "Facility Zip": 94122.0, "Facility Capacity": 26.0, "Facility Status": "CLOSED", "ELFA_Contracted": "No", "SFUSD_Site": "No", "SFUSD_School_Name": "", "Latitude": 37.75909167746437, "Longitude": -122.48936829357542}, {"Facility Type": "DAY CARE CENTER", "Facility Number": 384001491.0, "Facility Name": "LETTERMAN DIGITAL ARTS CCC (PRESCHOOL)", "Facility Address": "1 LETTERMAN DR., BLDG. B", "Facility City": "SAN FRANCISCO", "Facility Zip": 94129.0, "Facility Capacity": 72.0, "Facility Status": "LICENSED", "ELFA_Contracted": "No", "SFUSD_Site": "No", "SFUSD_School_Name": "", "Latitude": 37.81728400554302, "Longitude": -122.47524048385274}, {"Facility Type": "DAY CARE CENTER", "Facility Number": 384004486.0, "Facility Name": "LITTLE ANGELS JAPANESE PRESCHOOL", "Facility Address": "2545 JUDAH STREET", "Facility City": "SAN FRANCISCO", "Facility Zip": 94122.0, "Facility Capacity": 12.0, "Facility Status": "LICENSED", "ELFA_Contracted": "No", "SFUSD_Site": "No", "SFUSD_School_Name": "", "Latitude": 37.763315475080205, "Longitude": -122.48454631253533}, {"Facility Type": "DAY CARE CENTER", "Facility Number": 384000322.0, "Facility Name": "LITTLE ANGELS JAPANESE PRESCHOOL", "Facility Address": "1457 NINTH AVENUE", "Facility City": "SAN FRANCISCO", "Facility Zip": 94122.0, "Facility Capacity": 30.0, "Facility Status": "CLOSED", "ELFA_Contracted": "No", "SFUSD_Site": "No", "SFUSD_School_Name": "", "Latitude": 37.75825184080783, "Longitude": -122.4880029235418}, {"Facility Type": "DAY CARE CENTER", "Facility Number": 384002696.0, "Facility Name": "LITTLE ANGELS NURSERY SCHOOL", "Facility Address": "610-A CORTLAND AVENUE", "Facility City": "SAN FRANCISCO", "Facility Zip": 94110.0, "Facility Capacity": 20.0, "Facility Status": "LICENSED", "ELFA_Contracted": "No", "SFUSD_Site": "No", "SFUSD_School_Name": "", "Latitude": 37.74480130371069, "Longitude": -122.41271787440017}, {"Facility Type": "DAY CARE CENTER", "Facility Number": 384004194.0, "Facility Name": "LITTLE BEAR SCHOOL", "Facility Address": "327 CAPITOL AVENUE", "Facility City": "SAN FRANCISCO", "Facility Zip": 94112.0, "Facility Capacity": 60.0, "Facility Status": "CLOSED", "ELFA_Contracted": "No", "SFUSD_Site": "No", "SFUSD_School_Name": "", "Latitude": 37.723697016228236, "Longitude": -122.44019233345209}, {"Facility Type": "DAY CARE CENTER", "Facility Number": 384002469.0, "Facility Name": "LITTLE BEE", "Facility Address": "2733 LOMBARD STREET", "Facility City": "SAN FRANCISCO", "Facility Zip": 94123.0, "Facility Capacity": 32.0, "Facility Status": "LICENSED", "ELFA_Contracted": "No", "SFUSD_Site": "No", "SFUSD_School_Name": "", "Latitude": 37.794470200219145, "Longitude": -122.43338849997906}, {"Facility Type": "DAY CARE CENTER", "Facility Number": 384004231.0, "Facility Name": "LITTLE BEE PRESCHOOL", "Facility Address": "8 & 9 FUNSTON AVENUE", "Facility City": "SAN FRANCISCO", "Facility Zip": 94129.0, "Facility Capacity": 96.0, "Facility Status": "LICENSED", "ELFA_Contracted": "No", "SFUSD_Site": "No", "SFUSD_School_Name": "", "Latitude": 37.76257011673502, "Longitude": -122.35985856935459}, {"Facility Type": "DAY CARE CENTER", "Facility Number": 384004095.0, "Facility Name": "LITTLE CANAAN MONTESSORI PRESCHOOL", "Facility Address": "1439 PACIFIC AVENUE", "Facility City": "SAN FRANCISCO", "Facility Zip": 94109.0, "Facility Capacity": 15.0, "Facility Status": "CLOSED", "ELFA_Contracted": "No", "SFUSD_Site": "No", "SFUSD_School_Name": "", "Latitude": 37.78812011835276, "Longitude": -122.42276794718929}, {"Facility Type": "DAY CARE CENTER", "Facility Number": 384000818.0, "Facility Name": "LITTLE CHILDREN'S DEVELOPMENTAL CENTER", "Facility Address": "1223 WEBSTER STREET", "Facility City": "SAN FRANCISCO", "Facility Zip": 94115.0, "Facility Capacity": 19.0, "Facility Status": "LICENSED", "ELFA_Contracted": "Yes", "SFUSD_Site": "No", "SFUSD_School_Name": "", "Latitude": 37.79018002720754, "Longitude": -122.43583757853352}, {"Facility Type": "DAY CARE CENTER", "Facility Number": 384003083.0, "Facility Name": "LITTLE FOOTPRINTS PRESCHOOL OCEANVIEW", "Facility Address": "306 RANDOLPH STREET", "Facility City": "SAN FRANCISCO", "Facility Zip": 94132.0, "Facility Capacity": 104.0, "Facility Status": "LICENSED", "ELFA_Contracted": "Yes", "SFUSD_Site": "No", "SFUSD_School_Name": "", "Latitude": 37.72502935405485, "Longitude": -122.4792384652632}, {"Facility Type": "DAY CARE CENTER", "Facility Number": 384002156.0, "Facility Name": "LITTLE FOOTPRINTS PRESCHOOL, CORP.", "Facility Address": "2201 VICENTE STREET", "Facility City": "SAN FRANCISCO", "Facility Zip": 94116.0, "Facility Capacity": 80.0, "Facility Status": "LICENSED", "ELFA_Contracted": "Yes", "SFUSD_Site": "No", "SFUSD_School_Name": "", "Latitude": 37.74564217566057, "Longitude": -122.48367823555013}, {"Facility Type": "DAY CARE CENTER", "Facility Number": 380505208.0, "Facility Name": "LITTLE GATORS", "Facility Address": "3149 STEINER STREET", "Facility City": "SAN FRANCISCO", "Facility Zip": 94123.0, "Facility Capacity": 27.0, "Facility Status": "LICENSED", "ELFA_Contracted": "No", "SFUSD_Site": "No", "SFUSD_School_Name": "", "Latitude": 37.8019897280954, "Longitude": -122.43932677964091}, {"Facility Type": "DAY CARE CENTER", "Facility Number": 384002252.0, "Facility Name": "LITTLE LYNC CHILD CARE CENTER (THE)", "Facility Address": "501 CONNECTICUT STREET", "Facility City": "SAN FRANCISCO", "Facility Zip": 94107.0, "Facility Capacity": 27.0, "Facility Status": "LICENSED", "ELFA_Contracted": "No", "SFUSD_Site": "No", "SFUSD_School_Name": "", "Latitude": 37.75629676447851, "Longitude": -122.40309195221045}, {"Facility Type": "DAY CARE CENTER", "Facility Number": 384004387.0, "Facility Name": "LITTLE PANDA PRESCHOOL", "Facility Address": "205 GRANADA AVENUE", "Facility City": "SAN FRANCISCO", "Facility Zip": 94112.0, "Facility Capacity": 58.0, "Facility Status": "LICENSED", "ELFA_Contracted": "Yes", "SFUSD_Site": "No", "SFUSD_School_Name": "", "Latitude": 37.72508235665491, "Longitude": -122.44717244015526}, {"Facility Type": "DAY CARE CENTER", "Facility Number": 384001910.0, "Facility Name": "LITTLE PEOPLE PRESCHOOL", "Facility Address": "3595 TARAVAL ST", "Facility City": "SAN FRANCISCO", "Facility Zip": 94116.0, "Facility Capacity": 30.0, "Facility Status": "LICENSED", "ELFA_Contracted": "No", "SFUSD_Site": "No", "SFUSD_School_Name": "", "Latitude": 37.74589264987307, "Longitude": -122.48945814879059}, {"Facility Type": "DAY CARE CENTER", "Facility Number": 384004603.0, "Facility Name": "LITTLE ROBLES IN THE SUNSET", "Facility Address": "1319 20TH AVENUE", "Facility City": "SAN FRANCISCO", "Facility Zip": 94122.0, "Facility Capacity": 45.0, "Facility Status": "LICENSED", "ELFA_Contracted": "Yes", "SFUSD_Site": "No", "SFUSD_School_Name": "", "Latitude": 37.76061793830729, "Longitude": -122.4832098908255}, {"Facility Type": "DAY CARE CENTER", "Facility Number": 384000125.0, "Facility Name": "LITTLE SCHOOL, THE", "Facility Address": "1520 LYON STREET", "Facility City": "SAN FRANCISCO", "Facility Zip": 94115.0, "Facility Capacity": 125.0, "Facility Status": "LICENSED", "ELFA_Contracted": "Yes", "SFUSD_Site": "No", "SFUSD_School_Name": "", "Latitude": 37.78879764631658, "Longitude": -122.44034964166786}, {"Facility Type": "DAY CARE CENTER", "Facility Number": 380504535.0, "Facility Name": "LITTLE STAR", "Facility Address": "2540 TARAVAL STREET", "Facility City": "SAN FRANCISCO", "Facility Zip": 94116.0, "Facility Capacity": 45.0, "Facility Status": "CLOSED", "ELFA_Contracted": "No", "SFUSD_Site": "No", "SFUSD_School_Name": "", "Latitude": 37.741454916910875, "Longitude": -122.4822069657156}, {"Facility Type": "DAY CARE CENTER", "Facility Number": 384000093.0, "Facility Name": "LITTLE STAR PRESCHOOL  TOO ", "Facility Address": "1105 QUINTARA STREET", "Facility City": "SAN FRANCISCO", "Facility Zip": 94116.0, "Facility Capacity": 104.0, "Facility Status": "LICENSED", "ELFA_Contracted": "No", "SFUSD_Site": "No", "SFUSD_School_Name": "", "Latitude": 37.74622178693633, "Longitude": -122.48324857043897}, {"Facility Type": "DAY CARE CENTER", "Facility Number": 384004102.0, "Facility Name": "LITTLE SUN, LLC", "Facility Address": "321 JUDAH STREET", "Facility City": "SAN FRANCISCO", "Facility Zip": 94122.0, "Facility Capacity": 24.0, "Facility Status": "LICENSED", "ELFA_Contracted": "No", "SFUSD_Site": "No", "SFUSD_School_Name": "", "Latitude": 37.76350463669863, "Longitude": -122.48502028203664}, {"Facility Type": "DAY CARE CENTER", "Facility Number": 384002794.0, "Facility Name": "LITTLE TRAILBLAZERS (PS)", "Facility Address": "50 FREMONT STREET", "Facility City": "SAN FRANCISCO", "Facility Zip": 94105.0, "Facility Capacity": 84.0, "Facility Status": "LICENSED", "ELFA_Contracted": "Yes", "SFUSD_Site": "No", "SFUSD_School_Name": "", "Latitude": 37.78416054028607, "Longitude": -122.39767652323161}, {"Facility Type": "DAY CARE CENTER", "Facility Number": 384002282.0, "Facility Name": "LITTLE TREE PRESCHOOL", "Facility Address": "3161 MISSION STREET", "Facility City": "SAN FRANCISCO", "Facility Zip": 94110.0, "Facility Capacity": 22.0, "Facility Status": "LICENSED", "ELFA_Contracted": "No", "SFUSD_Site": "No", "SFUSD_School_Name": "", "Latitude": 37.749606579528184, "Longitude": -122.41813431926373}, {"Facility Type": "DAY CARE CENTER", "Facility Number": 384003039.0, "Facility Name": "LITTLE URBANITES PRESCHOOL", "Facility Address": "1258 20TH AVE", "Facility City": "SAN FRANCISCO", "Facility Zip": 94122.0, "Facility Capacity": 26.0, "Facility Status": "CLOSED", "ELFA_Contracted": "No", "SFUSD_Site": "No", "SFUSD_School_Name": "", "Latitude": 37.755836066090446, "Longitude": -122.49007605267441}, {"Facility Type": "DAY CARE CENTER", "Facility Number": 384004223.0, "Facility Name": "LITTLE URBANITES PRESCHOOL #2", "Facility Address": "1214 20TH AVENUE", "Facility City": "SAN FRANCISCO", "Facility Zip": 94122.0, "Facility Capacity": 20.0, "Facility Status": "CLOSED", "ELFA_Contracted": "No", "SFUSD_Site": "No", "SFUSD_School_Name": "", "Latitude": 37.75629312860575, "Longitude": -122.48521007982798}, {"Facility Type": "DAY CARE CENTER", "Facility Number": 384000944.0, "Facility Name": "LONE MOUNTAIN CHILDREN'S CENTER", "Facility Address": "1806 BELLES STREET-SF PRESIDIO", "Facility City": "SAN FRANCISCO", "Facility Zip": 94129.0, "Facility Capacity": 72.0, "Facility Status": "LICENSED", "ELFA_Contracted": "No", "SFUSD_Site": "No", "SFUSD_School_Name": "", "Latitude": 37.724654617043235, "Longitude": -122.41574747100151}, {"Facility Type": "DAY CARE CENTER", "Facility Number": 380503540.0, "Facility Name": "LOVE & LEARN NURSERY SCHOOL", "Facility Address": "1419 HOWARD STREET", "Facility City": "SAN FRANCISCO", "Facility Zip": 94103.0, "Facility Capacity": 37.0, "Facility Status": "INACTIVE", "ELFA_Contracted": "No", "SFUSD_Site": "No", "SFUSD_School_Name": "", "Latitude": 37.77598127372446, "Longitude": -122.41267882431484}, {"Facility Type": "DAY CARE CENTER", "Facility Number": 384000176.0, "Facility Name": "LYCEE FRANCAIS INTERNATIONAL LA PEROUSE", "Facility Address": "755/765 ASHBURY STREET", "Facility City": "SAN FRANCISCO", "Facility Zip": 94117.0, "Facility Capacity": 114.0, "Facility Status": "LICENSED", "ELFA_Contracted": "No", "SFUSD_Site": "No", "SFUSD_School_Name": "", "Latitude": 37.7652540070101, "Longitude": -122.44278354340234}, {"Facility Type": "DAY CARE CENTER", "Facility Number": 380506275.0, "Facility Name": "MARIA MONTESSORI SCHOOL OF THE GOLDEN GATE", "Facility Address": "62 LENOX WAY", "Facility City": "SAN FRANCISCO", "Facility Zip": 94127.0, "Facility Capacity": 24.0, "Facility Status": "LICENSED", "ELFA_Contracted": "No", "SFUSD_Site": "No", "SFUSD_School_Name": "", "Latitude": 37.737669875884194, "Longitude": -122.46264602317149}, {"Facility Type": "DAY CARE CENTER", "Facility Number": 384001292.0, "Facility Name": "MARIN DAY SCHOOL- S.F. CITY HALL CCC (PRESCHOOL)", "Facility Address": "1 DR. CARLTON B. GOODLETT WAY", "Facility City": "SAN FRANCISCO", "Facility Zip": 94102.0, "Facility Capacity": 40.0, "Facility Status": "CLOSED", "ELFA_Contracted": "No", "SFUSD_Site": "No", "SFUSD_School_Name": "", "Latitude": 37.780921555327396, "Longitude": -122.41695166779763}, {"Facility Type": "DAY CARE CENTER", "Facility Number": 384001296.0, "Facility Name": "MARIN DAY SCHOOLS - FREMONT CAMPUS (PRESCHOOL)", "Facility Address": "342 HOWARD STREET", "Facility City": "SAN FRANCISCO", "Facility Zip": 94105.0, "Facility Capacity": 32.0, "Facility Status": "CLOSED", "ELFA_Contracted": "No", "SFUSD_Site": "No", "SFUSD_School_Name": "", "Latitude": 37.78965254452495, "Longitude": -122.39730000429444}, {"Facility Type": "DAY CARE CENTER", "Facility Number": 384003040.0, "Facility Name": "MARIN DAY SCHOOLS - HILLS PLAZA", "Facility Address": "345 SPEAR STREET", "Facility City": "SAN FRANCISCO", "Facility Zip": 94111.0, "Facility Capacity": 44.0, "Facility Status": "CLOSED", "ELFA_Contracted": "No", "SFUSD_Site": "No", "SFUSD_School_Name": "", "Latitude": 37.80002981746133, "Longitude": -122.40141059898332}, {"Facility Type": "DAY CARE CENTER", "Facility Number": 384001299.0, "Facility Name": "MARIN DAY SCHOOLS - HILLS PLAZA CAMPUS (PRESCHOOL)", "Facility Address": "2 HARRISON ST., #150", "Facility City": "SAN FRANCISCO", "Facility Zip": 94105.0, "Facility Capacity": 31.0, "Facility Status": "CLOSED", "ELFA_Contracted": "No", "SFUSD_Site": "No", "SFUSD_School_Name": "", "Latitude": 37.781994884333244, "Longitude": -122.3939995216555}, {"Facility Type": "DAY CARE CENTER", "Facility Number": 384000897.0, "Facility Name": "MARINA CHILDREN", "Facility Address": "3219A LAGUNA STREET", "Facility City": "SAN FRANCISCO", "Facility Zip": 94123.0, "Facility Capacity": 21.0, "Facility Status": "CLOSED", "ELFA_Contracted": "No", "SFUSD_Site": "No", "SFUSD_School_Name": "", "Latitude": 37.80006357410952, "Longitude": -122.43172710127246}, {"Facility Type": "DAY CARE CENTER", "Facility Number": 384001666.0, "Facility Name": "MARTHA HILLS LEARNING CENTER - PRESCHOOL", "Facility Address": "1044 JAMESTOWN AVENUE", "Facility City": "SAN FRANCISCO", "Facility Zip": 94124.0, "Facility Capacity": 23.0, "Facility Status": "CLOSED", "ELFA_Contracted": "No", "SFUSD_Site": "No", "SFUSD_School_Name": "", "Latitude": 37.73208298330127, "Longitude": -122.39121869087379}, {"Facility Type": "DAY CARE CENTER", "Facility Number": 384002727.0, "Facility Name": "MARTIN LUTHER KING JR. CENTER", "Facility Address": "200 CASHMERE STREET", "Facility City": "SAN FRANCISCO", "Facility Zip": 94124.0, "Facility Capacity": 38.0, "Facility Status": "LICENSED", "ELFA_Contracted": "Yes", "SFUSD_Site": "No", "SFUSD_School_Name": "", "Latitude": 37.73259588442954, "Longitude": -122.38780468697273}, {"Facility Type": "DAY CARE CENTER", "Facility Number": 384004440.0, "Facility Name": "MEANINGFUL BEGINNINGS DEVELOPMENT CTR.", "Facility Address": "254 LAGUNA HONDA BLVD.", "Facility City": "SAN FRANCISCO", "Facility Zip": 94116.0, "Facility Capacity": 46.0, "Facility Status": "LICENSED", "ELFA_Contracted": "Yes", "SFUSD_Site": "No", "SFUSD_School_Name": "", "Latitude": 37.73982400928617, "Longitude": -122.49014727443746}, {"Facility Type": "DAY CARE CENTER", "Facility Number": 384004296.0, "Facility Name": "MIO-PRESCHOOL", "Facility Address": "2235 MISSION STREET", "Facility City": "SAN FRANCISCO", "Facility Zip": 94110.0, "Facility Capacity": 15.0, "Facility Status": "LICENSED", "ELFA_Contracted": "No", "SFUSD_Site": "No", "SFUSD_School_Name": "", "Latitude": 37.747871429796575, "Longitude": -122.41979572118359}, {"Facility Type": "DAY CARE CENTER", "Facility Number": 380505313.0, "Facility Name": "MIRALOMA NURSERY SCHOOL", "Facility Address": "443 FOERSTER STREET", "Facility City": "SAN FRANCISCO", "Facility Zip": 94127.0, "Facility Capacity": 22.0, "Facility Status": "LICENSED", "ELFA_Contracted": "No", "SFUSD_Site": "No", "SFUSD_School_Name": "", "Latitude": 37.73414205918195, "Longitude": -122.46181097359843}, {"Facility Type": "DAY CARE CENTER", "Facility Number": 380505833.0, "Facility Name": "MISSION CHILDCARE CONSORTIUM, INC.", "Facility Address": "4750 MISSION STREET", "Facility City": "SAN FRANCISCO", "Facility Zip": 94112.0, "Facility Capacity": 224.0, "Facility Status": "LICENSED", "ELFA_Contracted": "Yes", "SFUSD_Site": "No", "SFUSD_School_Name": "", "Latitude": 37.72471646307237, "Longitude": -122.4441280727127}, {"Facility Type": "DAY CARE CENTER", "Facility Number": 384004393.0, "Facility Name": "MISSION HEAD START- LA FENIX AT 1950(PS)", "Facility Address": "1954 MISSION ST. STE.A", "Facility City": "SAN FRANCISCO", "Facility Zip": 94103.0, "Facility Capacity": 20.0, "Facility Status": "LICENSED", "ELFA_Contracted": "Yes", "SFUSD_Site": "No", "SFUSD_School_Name": "", "Latitude": 37.77501001560547, "Longitude": -122.40785648535635}, {"Facility Type": "DAY CARE CENTER", "Facility Number": 384000731.0, "Facility Name": "MISSION HEAD START-101 VALENCIA HEAD START", "Facility Address": "1330 STEVENSON", "Facility City": "SAN FRANCISCO", "Facility Zip": 94103.0, "Facility Capacity": 20.0, "Facility Status": "LICENSED", "ELFA_Contracted": "Yes", "SFUSD_Site": "No", "SFUSD_School_Name": "", "Latitude": 37.77655405258395, "Longitude": -122.40430537113409}, {"Facility Type": "DAY CARE CENTER", "Facility Number": 384001017.0, "Facility Name": "MISSION HEAD START-BERNAL DWELLINGS CHILDCARE CTR.", "Facility Address": "3125 - 3141 26TH STREET", "Facility City": "SAN FRANCISCO", "Facility Zip": 94110.0, "Facility Capacity": 40.0, "Facility Status": "LICENSED", "ELFA_Contracted": "Yes", "SFUSD_Site": "No", "SFUSD_School_Name": "", "Latitude": 37.744154352147085, "Longitude": -122.41612854261231}, {"Facility Type": "DAY CARE CENTER", "Facility Number": 384001138.0, "Facility Name": "MISSION HEAD START-MISSION BAY CHILD DEV. CTR.", "Facility Address": "152 BERRY STREET", "Facility City": "SAN FRANCISCO", "Facility Zip": 94107.0, "Facility Capacity": 48.0, "Facility Status": "LICENSED", "ELFA_Contracted": "No", "SFUSD_Site": "No", "SFUSD_School_Name": "", "Latitude": 37.75654340811943, "Longitude": -122.40200354959272}, {"Facility Type": "DAY CARE CENTER", "Facility Number": 384000867.0, "Facility Name": "MISSION HEAD START-WOMEN'S BUILDING CENTER", "Facility Address": "3543 18TH STREET", "Facility City": "SAN FRANCISCO", "Facility Zip": 94110.0, "Facility Capacity": 23.0, "Facility Status": "LICENSED", "ELFA_Contracted": "Yes", "SFUSD_Site": "No", "SFUSD_School_Name": "", "Latitude": 37.75085768618385, "Longitude": -122.41957496241362}, {"Facility Type": "DAY CARE CENTER", "Facility Number": 380505268.0, "Facility Name": "MISSION HEAD START - ADULT CENTER (CAPP CENTER)", "Facility Address": "362 CAPP STREET", "Facility City": "SAN FRANCISCO", "Facility Zip": 94110.0, "Facility Capacity": 40.0, "Facility Status": "INACTIVE", "ELFA_Contracted": "No", "SFUSD_Site": "No", "SFUSD_School_Name": "", "Latitude": 37.75232823352781, "Longitude": -122.41852663233881}, {"Facility Type": "DAY CARE CENTER", "Facility Number": 384001206.0, "Facility Name": "MISSION HEAD START - JEAN JACOBS", "Facility Address": "459 VIENNA STREET", "Facility City": "SAN FRANCISCO", "Facility Zip": 94112.0, "Facility Capacity": 24.0, "Facility Status": "LICENSED", "ELFA_Contracted": "Yes", "SFUSD_Site": "No", "SFUSD_School_Name": "", "Latitude": 37.71955779919287, "Longitude": -122.44609896356735}, {"Facility Type": "DAY CARE CENTER", "Facility Number": 384001634.0, "Facility Name": "MISSION HEAD START - VALENCIA GARDENS", "Facility Address": "380 VALENCIA STREET", "Facility City": "SAN FRANCISCO", "Facility Zip": 94103.0, "Facility Capacity": 36.0, "Facility Status": "LICENSED", "ELFA_Contracted": "No", "SFUSD_Site": "No", "SFUSD_School_Name": "", "Latitude": 37.774987671732134, "Longitude": -122.40931091266343}, {"Facility Type": "DAY CARE CENTER", "Facility Number": 384004077.0, "Facility Name": "MISSION KIDS", "Facility Address": "1451 HAMPSHIRE", "Facility City": "SAN FRANCISCO", "Facility Zip": 94110.0, "Facility Capacity": 20.0, "Facility Status": "CLOSED", "ELFA_Contracted": "No", "SFUSD_Site": "No", "SFUSD_School_Name": "", "Latitude": 37.75161052479259, "Longitude": -122.41844782444386}, {"Facility Type": "DAY CARE CENTER", "Facility Number": 384001875.0, "Facility Name": "MISSION KIDS", "Facility Address": "1050 SOUTH VAN NESS #104", "Facility City": "SAN FRANCISCO", "Facility Zip": 94110.0, "Facility Capacity": 34.0, "Facility Status": "CLOSED", "ELFA_Contracted": "No", "SFUSD_Site": "No", "SFUSD_School_Name": "", "Latitude": 37.75373799254026, "Longitude": -122.42060814224358}, {"Facility Type": "DAY CARE CENTER", "Facility Number": 384004339.0, "Facility Name": "MISSION KIDS", "Facility Address": "969 TREAT AVENUE", "Facility City": "SAN FRANCISCO", "Facility Zip": 94110.0, "Facility Capacity": 96.0, "Facility Status": "LICENSED", "ELFA_Contracted": "Yes", "SFUSD_Site": "No", "SFUSD_School_Name": "", "Latitude": 37.74629597778029, "Longitude": -122.42020038742737}, {"Facility Type": "DAY CARE CENTER", "Facility Number": 384004039.0, "Facility Name": "MISSION MONTESSORI PRESCHOOL", "Facility Address": "50 FELL STREET", "Facility City": "SAN FRANCISCO", "Facility Zip": 94102.0, "Facility Capacity": 206.0, "Facility Status": "CLOSED", "ELFA_Contracted": "No", "SFUSD_Site": "No", "SFUSD_School_Name": "", "Latitude": 37.7767087578748, "Longitude": -122.41840715364701}, {"Facility Type": "DAY CARE CENTER", "Facility Number": 384004587.0, "Facility Name": "MISSION MONTESSORI (PS)", "Facility Address": "50 FELL STREET", "Facility City": "SAN FRANCISCO", "Facility Zip": 94102.0, "Facility Capacity": 120.0, "Facility Status": "LICENSED", "ELFA_Contracted": "Yes", "SFUSD_Site": "No", "SFUSD_School_Name": "", "Latitude": 37.78147557897916, "Longitude": -122.41460263280472}, {"Facility Type": "DAY CARE CENTER", "Facility Number": 384002718.0, "Facility Name": "MISSION NEIGHBORHOOD CTRS, INC. CENTRO DE ALEGRIA", "Facility Address": "1245 ALABAMA STREET", "Facility City": "SAN FRANCISCO", "Facility Zip": 94110.0, "Facility Capacity": 55.0, "Facility Status": "LICENSED", "ELFA_Contracted": "Yes", "SFUSD_Site": "No", "SFUSD_School_Name": "", "Latitude": 37.74997522683535, "Longitude": -122.41235624337689}, {"Facility Type": "DAY CARE CENTER", "Facility Number": 384004747.0, "Facility Name": "MOLDOVAN ACADEMY", "Facility Address": "1650 VALENCIA STREET", "Facility City": "SAN FRANCISCO", "Facility Zip": 94110.0, "Facility Capacity": 49.0, "Facility Status": "LICENSED", "ELFA_Contracted": "No", "SFUSD_Site": "No", "SFUSD_School_Name": "", "Latitude": 37.745401072924295, "Longitude": -122.41143481032076}, {"Facility Type": "DAY CARE CENTER", "Facility Number": 384002294.0, "Facility Name": "MOLDOVAN ACADEMY, INC.", "Facility Address": "1270 SANCHEZ STREET", "Facility City": "SAN FRANCISCO", "Facility Zip": 94114.0, "Facility Capacity": 45.0, "Facility Status": "CLOSED", "ELFA_Contracted": "No", "SFUSD_Site": "No", "SFUSD_School_Name": "", "Latitude": 37.75696689770041, "Longitude": -122.43530866703641}, {"Facility Type": "DAY CARE CENTER", "Facility Number": 384001313.0, "Facility Name": "MONTESSORI CHILDREN'S CENTER", "Facility Address": "80 JUAN BAUTISTA CIRCLE", "Facility City": "SAN FRANCISCO", "Facility Zip": 94132.0, "Facility Capacity": 58.0, "Facility Status": "CLOSED", "ELFA_Contracted": "No", "SFUSD_Site": "No", "SFUSD_School_Name": "", "Latitude": 37.72188014029045, "Longitude": -122.47589333186835}, {"Facility Type": "DAY CARE CENTER", "Facility Number": 380503970.0, "Facility Name": "MONTESSORI CHILDREN'S HOUSE OF THE WEST COAST", "Facility Address": "25 LAKE STREET", "Facility City": "SAN FRANCISCO", "Facility Zip": 94118.0, "Facility Capacity": 60.0, "Facility Status": "LICENSED", "ELFA_Contracted": "No", "SFUSD_Site": "No", "SFUSD_School_Name": "", "Latitude": 37.77602036199963, "Longitude": -122.46935823706949}, {"Facility Type": "DAY CARE CENTER", "Facility Number": 380501318.0, "Facility Name": "MONTESSORI HOUSE OF CHILDREN", "Facility Address": "1187 FRANKLIN STREET", "Facility City": "SAN FRANCISCO", "Facility Zip": 94109.0, "Facility Capacity": 110.0, "Facility Status": "LICENSED", "ELFA_Contracted": "No", "SFUSD_Site": "No", "SFUSD_School_Name": "", "Latitude": 37.787477304829004, "Longitude": -122.42140252026829}, {"Facility Type": "DAY CARE CENTER", "Facility Number": 380505730.0, "Facility Name": "MONTESSORI SCHOOL OF THE BAY AREA, INC.", "Facility Address": "1550 EDDY STREET", "Facility City": "SAN FRANCISCO", "Facility Zip": 94115.0, "Facility Capacity": 48.0, "Facility Status": "LICENSED", "ELFA_Contracted": "No", "SFUSD_Site": "No", "SFUSD_School_Name": "", "Latitude": 37.785140264417805, "Longitude": -122.43383146846195}, {"Facility Type": "DAY CARE CENTER", "Facility Number": 384002056.0, "Facility Name": "MY LITTLE LEARNING TREE", "Facility Address": "2118 CLEMENT STREET", "Facility City": "SAN FRANCISCO", "Facility Zip": 94121.0, "Facility Capacity": 30.0, "Facility Status": "LICENSED", "ELFA_Contracted": "No", "SFUSD_Site": "No", "SFUSD_School_Name": "", "Latitude": 37.77680639432875, "Longitude": -122.49658028782329}, {"Facility Type": "DAY CARE CENTER", "Facility Number": 384004581.0, "Facility Name": "NEW JOURNEY MANDARIN IMMERSION", "Facility Address": "1278A 20TH AVENUE", "Facility City": "SAN FRANCISCO", "Facility Zip": 94122.0, "Facility Capacity": 40.0, "Facility Status": "LICENSED", "ELFA_Contracted": "Yes", "SFUSD_Site": "No", "SFUSD_School_Name": "", "Latitude": 37.75609307780411, "Longitude": -122.48740177977692}, {"Facility Type": "DAY CARE CENTER", "Facility Number": 380504776.0, "Facility Name": "NIHONMACHI LITTLE FRIENDS SUTTER SITE", "Facility Address": "1830 SUTTER STREET", "Facility City": "SAN FRANCISCO", "Facility Zip": 94115.0, "Facility Capacity": 91.0, "Facility Status": "LICENSED", "ELFA_Contracted": "Yes", "SFUSD_Site": "No", "SFUSD_School_Name": "", "Latitude": 37.78182175077164, "Longitude": -122.43499629179502}, {"Facility Type": "DAY CARE CENTER", "Facility Number": 384002096.0, "Facility Name": "NOE VALLEY NURSERY SCHOOL", "Facility Address": "5210 DIAMOND HEIGHTS BLVD.", "Facility City": "SAN FRANCISCO", "Facility Zip": 94131.0, "Facility Capacity": 30.0, "Facility Status": "LICENSED", "ELFA_Contracted": "No", "SFUSD_Site": "No", "SFUSD_School_Name": "", "Latitude": 37.7431902543912, "Longitude": -122.44187366567196}, {"Facility Type": "DAY CARE CENTER", "Facility Number": 384004541.0, "Facility Name": "NOPA MONTESSORI", "Facility Address": "2104 HAYES STREET", "Facility City": "SAN FRANCISCO", "Facility Zip": 94117.0, "Facility Capacity": 24.0, "Facility Status": "LICENSED", "ELFA_Contracted": "No", "SFUSD_Site": "No", "SFUSD_School_Name": "", "Latitude": 37.7724401960937, "Longitude": -122.44117643674706}, {"Facility Type": "DAY CARE CENTER", "Facility Number": 384004262.0, "Facility Name": "NOPA MONTESSORI", "Facility Address": "2114 HAYES STREET", "Facility City": "SAN FRANCISCO", "Facility Zip": 94117.0, "Facility Capacity": 45.0, "Facility Status": "LICENSED", "ELFA_Contracted": "No", "SFUSD_Site": "No", "SFUSD_School_Name": "", "Latitude": 37.76994589825243, "Longitude": -122.44047460905483}, {"Facility Type": "DAY CARE CENTER", "Facility Number": 384002679.0, "Facility Name": "NORTH BEACH KIDS", "Facility Address": "724 LOMBARD STREET", "Facility City": "SAN FRANCISCO", "Facility Zip": 94133.0, "Facility Capacity": 28.0, "Facility Status": "LICENSED", "ELFA_Contracted": "No", "SFUSD_Site": "No", "SFUSD_School_Name": "", "Latitude": 37.80023663816513, "Longitude": -122.41381309514395}, {"Facility Type": "DAY CARE CENTER", "Facility Number": 380500487.0, "Facility Name": "ONE FIFTY PARKER AVENUE NURSERY SCHOOL", "Facility Address": "150 PARKER AVE", "Facility City": "SAN FRANCISCO", "Facility Zip": 94118.0, "Facility Capacity": 35.0, "Facility Status": "LICENSED", "ELFA_Contracted": "Yes", "SFUSD_Site": "No", "SFUSD_School_Name": "", "Latitude": 37.78083396856228, "Longitude": -122.4630746826258}, {"Facility Type": "DAY CARE CENTER", "Facility Number": 380506487.0, "Facility Name": "PACIFIC GAS & ELECTRIC CHILDREN'S CENTER-PRESCHOOL", "Facility Address": "77 BEALE STREET 2ND FLR MC-B2A", "Facility City": "SAN FRANCISCO", "Facility Zip": 94105.0, "Facility Capacity": 45.0, "Facility Status": "CLOSED", "ELFA_Contracted": "No", "SFUSD_Site": "No", "SFUSD_School_Name": "", "Latitude": 37.784619580382866, "Longitude": -122.39355331057105}, {"Facility Type": "DAY CARE CENTER", "Facility Number": 380500491.0, "Facility Name": "PACIFIC PRIMARY", "Facility Address": "1500 GROVE STREET", "Facility City": "SAN FRANCISCO", "Facility Zip": 94117.0, "Facility Capacity": 80.0, "Facility Status": "LICENSED", "ELFA_Contracted": "Yes", "SFUSD_Site": "No", "SFUSD_School_Name": "", "Latitude": 37.76875549226804, "Longitude": -122.4412254008738}, {"Facility Type": "DAY CARE CENTER", "Facility Number": 384001816.0, "Facility Name": "PACIFIC PRIMARY - ORANGE SUN CAMPUS", "Facility Address": "1501 GROVE STREET", "Facility City": "SAN FRANCISCO", "Facility Zip": 94117.0, "Facility Capacity": 75.0, "Facility Status": "LICENSED", "ELFA_Contracted": "Yes", "SFUSD_Site": "No", "SFUSD_School_Name": "", "Latitude": 37.77004986849571, "Longitude": -122.43952507080641}, {"Facility Type": "DAY CARE CENTER", "Facility Number": 384004609.0, "Facility Name": "PANDA CHILDREN'S CENTER", "Facility Address": "2124 TARAVAL STREET", "Facility City": "SAN FRANCISCO", "Facility Zip": 94116.0, "Facility Capacity": 22.0, "Facility Status": "LICENSED", "ELFA_Contracted": "No", "SFUSD_Site": "No", "SFUSD_School_Name": "", "Latitude": 37.74773450758279, "Longitude": -122.48835004155944}, {"Facility Type": "DAY CARE CENTER", "Facility Number": 384004147.0, "Facility Name": "PEEKADOODLE ACADEMY PRESCHOOL", "Facility Address": "4228 GEARY BLVD", "Facility City": "SAN FRANCISCO", "Facility Zip": 94118.0, "Facility Capacity": 74.0, "Facility Status": "LICENSED", "ELFA_Contracted": "No", "SFUSD_Site": "No", "SFUSD_School_Name": "", "Latitude": 37.78437447267819, "Longitude": -122.46118227541142}, {"Facility Type": "DAY CARE CENTER", "Facility Number": 384000741.0, "Facility Name": "PETER'S PLACE NURSERY SCHOOL", "Facility Address": "227 BALBOA STREET", "Facility City": "SAN FRANCISCO", "Facility Zip": 94118.0, "Facility Capacity": 20.0, "Facility Status": "LICENSED", "ELFA_Contracted": "No", "SFUSD_Site": "No", "SFUSD_School_Name": "", "Latitude": 37.77993901477003, "Longitude": -122.46521828699116}, {"Facility Type": "DAY CARE CENTER", "Facility Number": 384002978.0, "Facility Name": "PETITE EXPLORER PRESCHOOL", "Facility Address": "722 SOUTH VAN NESS", "Facility City": "SAN FRANCISCO", "Facility Zip": 94110.0, "Facility Capacity": 66.0, "Facility Status": "LICENSED", "ELFA_Contracted": "No", "SFUSD_Site": "No", "SFUSD_School_Name": "", "Latitude": 37.75030999798177, "Longitude": -122.41631730996512}, {"Facility Type": "DAY CARE CENTER", "Facility Number": 384004334.0, "Facility Name": "PETITE EXPLORER, INC.", "Facility Address": "823 DIVISADERO STREET", "Facility City": "SAN FRANCISCO", "Facility Zip": 94117.0, "Facility Capacity": 42.0, "Facility Status": "LICENSED", "ELFA_Contracted": "No", "SFUSD_Site": "No", "SFUSD_School_Name": "", "Latitude": 37.7685756422542, "Longitude": -122.44013123977932}, {"Facility Type": "DAY CARE CENTER", "Facility Number": 380500512.0, "Facility Name": "PHOEBE A. HEARST PRESCHOOL LEARNING CENTER", "Facility Address": "1315 ELLIS STREET", "Facility City": "SAN FRANCISCO", "Facility Zip": 94115.0, "Facility Capacity": 125.0, "Facility Status": "LICENSED", "ELFA_Contracted": "No", "SFUSD_Site": "No", "SFUSD_School_Name": "", "Latitude": 37.79073952545194, "Longitude": -122.44086819676859}, {"Facility Type": "DAY CARE CENTER", "Facility Number": 384002210.0, "Facility Name": "PIXIE HALL STUDIOS (PS)", "Facility Address": "649 DIAMOND STREET", "Facility City": "SAN FRANCISCO", "Facility Zip": 94114.0, "Facility Capacity": 10.0, "Facility Status": "CLOSED", "ELFA_Contracted": "No", "SFUSD_Site": "No", "SFUSD_School_Name": "", "Latitude": 37.75525910770746, "Longitude": -122.4312877099218}, {"Facility Type": "DAY CARE CENTER", "Facility Number": 384002593.0, "Facility Name": "PLAYGROUP (PS)", "Facility Address": "1818 & 1819 WEDEMEYER STREET", "Facility City": "SAN FRANCISCO", "Facility Zip": 94129.0, "Facility Capacity": 70.0, "Facility Status": "LICENSED", "ELFA_Contracted": "No", "SFUSD_Site": "No", "SFUSD_School_Name": "", "Latitude": 37.73820189887291, "Longitude": -122.35303242632604}, {"Facility Type": "DAY CARE CENTER", "Facility Number": 380504052.0, "Facility Name": "PLAYMATES COOPERATIVE NURSERY SCHOOL", "Facility Address": "2340 -42ND AVENUE", "Facility City": "SAN FRANCISCO", "Facility Zip": 94116.0, "Facility Capacity": 49.0, "Facility Status": "LICENSED", "ELFA_Contracted": "No", "SFUSD_Site": "No", "SFUSD_School_Name": "", "Latitude": 37.7437551463637, "Longitude": -122.4819591947163}, {"Facility Type": "DAY CARE CENTER", "Facility Number": 384004643.0, "Facility Name": "POTRERO HILL MONTESSORI SCHOOL", "Facility Address": "1701 17TH STREET", "Facility City": "SAN FRANCISCO", "Facility Zip": 94103.0, "Facility Capacity": 54.0, "Facility Status": "LICENSED", "ELFA_Contracted": "No", "SFUSD_Site": "No", "SFUSD_School_Name": "", "Latitude": 37.772366948093705, "Longitude": -122.40648693821088}, {"Facility Type": "DAY CARE CENTER", "Facility Number": 384001949.0, "Facility Name": "POTRERO KIDS AT DANIEL WEBSTER", "Facility Address": "465 MISSOURI STREET", "Facility City": "SAN FRANCISCO", "Facility Zip": 94107.0, "Facility Capacity": 38.0, "Facility Status": "LICENSED", "ELFA_Contracted": "Yes", "SFUSD_Site": "No", "SFUSD_School_Name": "", "Latitude": 37.76042876519604, "Longitude": -122.40337362285516}, {"Facility Type": "DAY CARE CENTER", "Facility Number": 384002301.0, "Facility Name": "POTRERO KIDS THIRD", "Facility Address": "810 ILLINOIS STREET", "Facility City": "SAN FRANCISCO", "Facility Zip": 94107.0, "Facility Capacity": 64.0, "Facility Status": "LICENSED", "ELFA_Contracted": "Yes", "SFUSD_Site": "No", "SFUSD_School_Name": "", "Latitude": 37.757111816220615, "Longitude": -122.39991767925372}, {"Facility Type": "DAY CARE CENTER", "Facility Number": 384004795.0, "Facility Name": "POTRERO SPACE PRESCHOOL", "Facility Address": "824 CAROLINA STREET", "Facility City": "SAN FRANCISCO", "Facility Zip": 94107.0, "Facility Capacity": 52.0, "Facility Status": "LICENSED", "ELFA_Contracted": "No", "SFUSD_Site": "No", "SFUSD_School_Name": "", "Latitude": 37.75632395729461, "Longitude": -122.3994211452575}, {"Facility Type": "DAY CARE CENTER", "Facility Number": 380505138.0, "Facility Name": "PRESCHOOL, THE", "Facility Address": "102 SAN JOSE AVENUE", "Facility City": "SAN FRANCISCO", "Facility Zip": 94110.0, "Facility Capacity": 15.0, "Facility Status": "CLOSED", "ELFA_Contracted": "No", "SFUSD_Site": "No", "SFUSD_School_Name": "", "Latitude": 37.7532483166345, "Longitude": -122.4159133956636}, {"Facility Type": "DAY CARE CENTER", "Facility Number": 384002131.0, "Facility Name": "PRESIDIO KNOLLS SCHOOL", "Facility Address": "250 10TH STREET", "Facility City": "SAN FRANCISCO", "Facility Zip": 94103.0, "Facility Capacity": 180.0, "Facility Status": "LICENSED", "ELFA_Contracted": "Yes", "SFUSD_Site": "No", "SFUSD_School_Name": "", "Latitude": 37.77167000116537, "Longitude": -122.41125196643006}, {"Facility Type": "DAY CARE CENTER", "Facility Number": 384004459.0, "Facility Name": "PROJECT COMMOTION-LAS LUCIERNAGAS", "Facility Address": "2095 HARRISON STREET", "Facility City": "SAN FRANCISCO", "Facility Zip": 94110.0, "Facility Capacity": 12.0, "Facility Status": "LICENSED", "ELFA_Contracted": "Yes", "SFUSD_Site": "No", "SFUSD_School_Name": "", "Latitude": 37.74452599801729, "Longitude": -122.41124181519226}, {"Facility Type": "DAY CARE CENTER", "Facility Number": 380505779.0, "Facility Name": "RAINBOW MONTESSORI", "Facility Address": "2358 24TH AVENUE", "Facility City": "SAN FRANCISCO", "Facility Zip": 94116.0, "Facility Capacity": 18.0, "Facility Status": "LICENSED", "ELFA_Contracted": "No", "SFUSD_Site": "No", "SFUSD_School_Name": "", "Latitude": 37.73858111883328, "Longitude": -122.48624087102746}, {"Facility Type": "DAY CARE CENTER", "Facility Number": 384004814.0, "Facility Name": "REGGIO PRESCHOOL", "Facility Address": "3886 17TH STREET", "Facility City": "SAN FRANCISCO", "Facility Zip": 94114.0, "Facility Capacity": 32.0, "Facility Status": "CLOSED", "ELFA_Contracted": "No", "SFUSD_Site": "No", "SFUSD_School_Name": "", "Latitude": 37.76240500355032, "Longitude": -122.43650990995248}, {"Facility Type": "DAY CARE CENTER", "Facility Number": 384004300.0, "Facility Name": "RICHMOND ACADEMY", "Facility Address": "3435 GEARY BLVD.", "Facility City": "SAN FRANCISCO", "Facility Zip": 94118.0, "Facility Capacity": 72.0, "Facility Status": "LICENSED", "ELFA_Contracted": "No", "SFUSD_Site": "No", "SFUSD_School_Name": "", "Latitude": 37.78021361133937, "Longitude": -122.46471530299074}, {"Facility Type": "DAY CARE CENTER", "Facility Number": 380504057.0, "Facility Name": "ROCKY MOUNTAIN PARTICIPATION NURSERY SCHOOL", "Facility Address": "2475 - 15TH STREET", "Facility City": "SAN FRANCISCO", "Facility Zip": 94114.0, "Facility Capacity": 20.0, "Facility Status": "LICENSED", "ELFA_Contracted": "No", "SFUSD_Site": "No", "SFUSD_School_Name": "", "Latitude": 37.75511251019283, "Longitude": -122.43936816178498}, {"Facility Type": "DAY CARE CENTER", "Facility Number": 384004779.0, "Facility Name": "ROCKY MTN. PARTICIPATION NURSERY SCHOOL", "Facility Address": "2498 FOLSOM STREET", "Facility City": "SAN FRANCISCO", "Facility Zip": 94110.0, "Facility Capacity": 20.0, "Facility Status": "CLOSED", "ELFA_Contracted": "No", "SFUSD_Site": "No", "SFUSD_School_Name": "", "Latitude": 37.74516011270901, "Longitude": -122.41172966536507}, {"Facility Type": "DAY CARE CENTER", "Facility Number": 384001473.0, "Facility Name": "ROOM TO GROW PRESCHOOL, THE", "Facility Address": "3786 MISSION STREET", "Facility City": "SAN FRANCISCO", "Facility Zip": 94110.0, "Facility Capacity": 26.0, "Facility Status": "LICENSED", "ELFA_Contracted": "No", "SFUSD_Site": "No", "SFUSD_School_Name": "", "Latitude": 37.74577514602365, "Longitude": -122.41985060381933}, {"Facility Type": "DAY CARE CENTER", "Facility Number": 384001346.0, "Facility Name": "RUSSIAN HILL SCHOOL", "Facility Address": "2026 DIVISADERO STREET", "Facility City": "SAN FRANCISCO", "Facility Zip": 94115.0, "Facility Capacity": 22.0, "Facility Status": "LICENSED", "ELFA_Contracted": "No", "SFUSD_Site": "No", "SFUSD_School_Name": "", "Latitude": 37.790424789477214, "Longitude": -122.43482986049057}, {"Facility Type": "DAY CARE CENTER", "Facility Number": 384002968.0, "Facility Name": "SAN FRANCISCO MONTESSORI ACADEMY", "Facility Address": "1283 22ND AVE", "Facility City": "SAN FRANCISCO", "Facility Zip": 94122.0, "Facility Capacity": 23.0, "Facility Status": "LICENSED", "ELFA_Contracted": "No", "SFUSD_Site": "No", "SFUSD_School_Name": "", "Latitude": 37.75470484316496, "Longitude": -122.4847198152025}, {"Facility Type": "DAY CARE CENTER", "Facility Number": 380500581.0, "Facility Name": "SAN FRANCISCO SCHOOL", "Facility Address": "300 GAVEN ST", "Facility City": "SAN FRANCISCO", "Facility Zip": 94134.0, "Facility Capacity": 90.0, "Facility Status": "LICENSED", "ELFA_Contracted": "No", "SFUSD_Site": "No", "SFUSD_School_Name": "", "Latitude": 37.722084535359485, "Longitude": -122.4199413792502},